"","CNAE 2.0 Classe","Ind Atividade Ano","Ind CEI Vinculado","Ind Estab Participa PAT","Ind Rais Negativa","Ind Simples","Município","CNAE 2.0 Subclasse","Tamanho Estabelecimento","UF","CEP Estab","Qtd_Vinc_CLT","Qtd_Vinc_Ativos","Qtd_Vinc_Estat","Natureza_Juridica","TpEstab","IbgeSubSetor","CO_MUNICIPIO","SGL_UF","DS_MESORREGIAO","DS_MICRORREGIAO","NOME_MUNICIPIO","LATITUDE","LONGITUDE","ds_nat_jur","ds_tpestab","ds_ibge_subsetor"
"1","23991",1,0,0,0,0,351550,"2399199","03",35,99999999,5,5,0,2062,1,2,3515509,"SP","São José do Rio Preto","Fernandópolis","Fernandópolis","-20.2806","-50.2471","SOC QT LTDA","CNPJ","Indústria de produtos minerais nao metálicos"
"2","23991",1,0,0,0,1,350760,"2399199","02",35,12906330,2,2,0,2135,1,2,3507605,"SP","Macro Metropolitana Paulista","Bragança Paulista","Bragança Paulista","-22.9527","-46.5419","FRM MER IND","CNPJ","Indústria de produtos minerais nao metálicos"
"3","08100",1,0,0,0,0,350740,"0810099","05",35,14955000,24,24,0,2062,1,1,3507407,"SP","Araraquara","Araraquara","Borborema","-21.6214","-49.0741","SOC QT LTDA","CNPJ","Extrativa mineral"
"4","08100",1,0,0,0,0,354060,"0810099","02",35,18540000,5,5,0,2062,1,1,3540606,"SP","Macro Metropolitana Paulista","Sorocaba","Porto Feliz","-23.2093","-47.5251","SOC QT LTDA","CNPJ","Extrativa mineral"
"5","23991",1,0,0,0,1,351440,"2399199","03",35,17900000,5,5,0,2062,1,2,3514403,"SP","Presidente Prudente","Dracena","Dracena","-21.4843","-51.535","SOC QT LTDA","CNPJ","Indústria de produtos minerais nao metálicos"
"6","23991",1,0,0,0,0,353060,"2399199","06",35,8735275,55,55,0,2062,1,2,3530607,"SP","Metropolitana de São Paulo","Mogi das Cruzes","Mogi das Cruzes","-23.5208","-46.1854","SOC QT LTDA","CNPJ","Indústria de produtos minerais nao metálicos"
"7","23991",1,0,0,0,0,352340,"2399199","03",35,13254238,9,9,0,2062,1,2,3523404,"SP","Macro Metropolitana Paulista","Bragança Paulista","Itatiba","-23.0035","-46.8464","SOC QT LTDA","CNPJ","Indústria de produtos minerais nao metálicos"
"8","23991",1,0,0,0,0,350850,"2399199","04",35,12286715,16,16,0,2062,1,2,3508504,"SP","Vale do Paraíba Paulista","São José dos Campos","Caçapava","-23.0992","-45.7076","SOC QT LTDA","CNPJ","Indústria de produtos minerais nao metálicos"
"9","23991",1,0,0,0,1,354390,"2399199","03",35,13505600,8,8,0,2062,1,2,3543907,"SP","Piracicaba","Rio Claro","Rio Claro","-22.3984","-47.5546","SOC QT LTDA","CNPJ","Indústria de produtos minerais nao metálicos"
"10","23991",1,0,0,0,1,351380,"2399199","02",35,9981360,2,2,0,2305,1,2,3513801,"SP","Metropolitana de São Paulo","São Paulo","Diadema","-23.6813","-46.6205",NA,"CNPJ","Indústria de produtos minerais nao metálicos"
"11","09904",1,0,0,0,1,355420,"0990403","06",35,18830000,58,58,0,2305,1,1,3554201,"SP","Assis","Ourinhos","Tejupá","-23.3425","-49.3722",NA,"CNPJ","Extrativa mineral"
"12","09904",1,0,0,0,0,353120,"0990403","03",35,13915000,8,8,0,2305,1,1,3531209,"SP","Campinas","Amparo","Monte Alegre do Sul","-22.6817","-46.681",NA,"CNPJ","Extrativa mineral"
"13","08100",1,0,0,0,0,355250,"0810099","02",35,8653015,1,1,0,2062,1,1,3552502,"SP","Metropolitana de São Paulo","Mogi das Cruzes","Suzano","-23.5448","-46.3112","SOC QT LTDA","CNPJ","Extrativa mineral"
"14","08100",1,0,0,0,0,350660,"0810099","05",35,8940000,24,24,0,2062,1,1,3506607,"SP","Metropolitana de São Paulo","Mogi das Cruzes","Biritiba Mirim","-23.5698","-46.0407","SOC QT LTDA","CNPJ","Extrativa mineral"
"15","23991",1,0,0,0,1,354910,"2399199","02",35,13873067,1,1,0,2062,1,2,3549102,"SP","Campinas","São João da Boa Vista","São João da Boa Vista","-21.9707","-46.7944","SOC QT LTDA","CNPJ","Indústria de produtos minerais nao metálicos"
"16","23991",1,0,0,0,0,354390,"2399199","04",35,13509000,24,24,0,2062,1,2,3543907,"SP","Piracicaba","Rio Claro","Rio Claro","-22.3984","-47.5546","SOC QT LTDA","CNPJ","Indústria de produtos minerais nao metálicos"
"17","23991",1,0,0,0,0,354140,"2399199","02",35,19043140,5,5,0,2062,1,2,3541406,"SP","Presidente Prudente","Presidente Prudente","Presidente Prudente","-22.1207","-51.3925","SOC QT LTDA","CNPJ","Indústria de produtos minerais nao metálicos"
"18","23991",1,0,0,0,0,354240,"2399199","03",35,19570000,12,12,0,2062,1,2,3542404,"SP","Presidente Prudente","Presidente Prudente","Regente Feijó","-22.2181","-51.3055","SOC QT LTDA","CNPJ","Indústria de produtos minerais nao metálicos"
"19","23991",1,0,0,0,1,354150,"2399199","02",35,19400000,1,1,0,2135,1,2,3541505,"SP","Presidente Prudente","Presidente Prudente","Presidente Venceslau","-21.8732","-51.8447","FRM MER IND","CNPJ","Indústria de produtos minerais nao metálicos"
"20","08100",1,0,1,0,0,354680,"0810099","01",35,7500000,0,0,0,2062,1,1,3546801,"SP","Metropolitana de São Paulo","Guarulhos","Santa Isabel","-23.3172","-46.2237","SOC QT LTDA","CNPJ","Extrativa mineral"
"21","23991",1,0,0,0,1,350950,"2399199","03",35,13040225,7,7,0,2062,1,2,3509502,"SP","Campinas","Campinas","Campinas","-22.9053","-47.0659","SOC QT LTDA","CNPJ","Indústria de produtos minerais nao metálicos"
"22","23991",1,0,0,0,0,351280,"2399199","02",35,13150001,4,4,0,2305,1,2,3512803,"SP","Campinas","Campinas","Cosmópolis","-22.6419","-47.1926",NA,"CNPJ","Indústria de produtos minerais nao metálicos"
"23","08100",1,0,0,0,0,350900,"0810099","07",35,7700001,147,147,0,2062,1,1,3509007,"SP","Metropolitana de São Paulo","Franco da Rocha","Caieiras","-23.3607","-46.7397","SOC QT LTDA","CNPJ","Extrativa mineral"
"24","23991",1,0,1,0,1,353870,"2399199","03",35,13424230,7,7,0,2062,1,2,3538709,"SP","Piracicaba","Piracicaba","Piracicaba","-22.7338","-47.6476","SOC QT LTDA","CNPJ","Indústria de produtos minerais nao metálicos"
"25","23991",1,0,0,0,1,352570,"2399199","03",35,15200000,7,7,0,2062,1,2,3525706,"SP","São José do Rio Preto","São José do Rio Preto","José Bonifácio","-21.0551","-49.6892","SOC QT LTDA","CNPJ","Indústria de produtos minerais nao metálicos"
"26","23991",1,0,0,0,0,352310,"2399199","02",35,8586180,2,2,0,2062,1,2,3523107,"SP","Metropolitana de São Paulo","Mogi das Cruzes","Itaquaquecetuba","-23.4835","-46.3457","SOC QT LTDA","CNPJ","Indústria de produtos minerais nao metálicos"
"27","23991",1,0,0,0,0,350160,"2399199","07",35,13474750,149,149,0,2062,1,2,3501608,"SP","Campinas","Campinas","Americana","-22.7374","-47.3331","SOC QT LTDA","CNPJ","Indústria de produtos minerais nao metálicos"
"28","23991",1,0,0,0,0,352310,"2399199","06",35,8586170,87,87,0,2062,1,2,3523107,"SP","Metropolitana de São Paulo","Mogi das Cruzes","Itaquaquecetuba","-23.4835","-46.3457","SOC QT LTDA","CNPJ","Indústria de produtos minerais nao metálicos"
"29","23991",1,0,0,0,0,355030,"2399199","05",35,3401001,22,22,0,2062,1,2,3550308,"SP","Metropolitana de São Paulo","São Paulo","São Paulo","-23.5329","-46.6395","SOC QT LTDA","CNPJ","Indústria de produtos minerais nao metálicos"
"30","23991",1,0,0,0,1,352440,"2399199","04",35,12335000,16,16,0,2305,1,2,3524402,"SP","Vale do Paraíba Paulista","São José dos Campos","Jacareí","-23.2983","-45.9658",NA,"CNPJ","Indústria de produtos minerais nao metálicos"
"31","23991",1,0,0,0,1,353060,"2399199","05",35,8772010,24,24,0,2305,1,2,3530607,"SP","Metropolitana de São Paulo","Mogi das Cruzes","Mogi das Cruzes","-23.5208","-46.1854",NA,"CNPJ","Indústria de produtos minerais nao metálicos"
"32","23991",1,0,0,0,1,355030,"2399199","02",35,3977416,3,3,0,2305,1,2,3550308,"SP","Metropolitana de São Paulo","São Paulo","São Paulo","-23.5329","-46.6395",NA,"CNPJ","Indústria de produtos minerais nao metálicos"
"33","23991",1,0,0,0,0,354060,"2399199","01",35,18540000,0,0,0,2062,1,2,3540606,"SP","Macro Metropolitana Paulista","Sorocaba","Porto Feliz","-23.2093","-47.5251","SOC QT LTDA","CNPJ","Indústria de produtos minerais nao metálicos"
"34","08100",1,0,0,0,0,353100,"0810099","04",35,15275000,10,10,0,2062,1,1,3531001,"SP","São José do Rio Preto","Nhandeara","Monções","-20.8509","-50.0975","SOC QT LTDA","CNPJ","Extrativa mineral"
"35","23991",1,0,0,0,1,353710,"2399199","04",35,13920000,14,14,0,2062,1,2,3537107,"SP","Campinas","Campinas","Pedreira","-22.7413","-46.8948","SOC QT LTDA","CNPJ","Indústria de produtos minerais nao metálicos"
"36","08100",1,0,0,0,0,354680,"0810099","03",35,7500000,8,8,0,2062,1,1,3546801,"SP","Metropolitana de São Paulo","Guarulhos","Santa Isabel","-23.3172","-46.2237","SOC QT LTDA","CNPJ","Extrativa mineral"
"37","23991",1,0,0,0,1,351300,"2399199","03",35,6727185,9,9,0,2062,1,2,3513009,"SP","Metropolitana de São Paulo","Itapecerica da Serra","Cotia","-23.6022","-46.919","SOC QT LTDA","CNPJ","Indústria de produtos minerais nao metálicos"
"38","23991",1,0,0,0,1,354580,"2399199","01",35,13450192,0,0,0,2062,1,2,3545803,"SP","Campinas","Campinas","Santa Bárbara d'Oeste","-22.7553","-47.4143","SOC QT LTDA","CNPJ","Indústria de produtos minerais nao metálicos"
"39","23991",1,0,0,0,0,354300,"2399199","02",35,18430000,2,2,0,2062,1,2,3543006,"SP","Itapetininga","Capão Bonito","Ribeirão Branco","-24.2206","-48.7635","SOC QT LTDA","CNPJ","Indústria de produtos minerais nao metálicos"
"40","23991",1,0,0,0,0,351240,"2399199","06",35,13490000,67,67,0,2305,1,2,3512407,"SP","Piracicaba","Limeira","Cordeirópolis","-22.4778","-47.4519",NA,"CNPJ","Indústria de produtos minerais nao metálicos"
"41","23991",1,0,0,0,0,354910,"2399199","04",35,13870672,15,15,0,2062,1,2,3549102,"SP","Campinas","São João da Boa Vista","São João da Boa Vista","-21.9707","-46.7944","SOC QT LTDA","CNPJ","Indústria de produtos minerais nao metálicos"
"42","23991",1,0,0,0,0,351570,"2399199","05",35,8500020,35,35,0,2054,1,2,3515707,"SP","Metropolitana de São Paulo","Mogi das Cruzes","Ferraz de Vasconcelos","-23.5411","-46.371","SA FECH","CNPJ","Indústria de produtos minerais nao metálicos"
"43","23991",1,0,0,0,0,352240,"2399199","03",35,18400970,6,6,0,2062,1,2,3522406,"SP","Itapetininga","Itapeva","Itapeva","-23.9788","-48.8764","SOC QT LTDA","CNPJ","Indústria de produtos minerais nao metálicos"
"44","23991",1,0,0,0,0,353282,"2399199","02",35,18435000,3,3,0,2062,1,2,3532827,"SP","Itapetininga","Itapeva","Nova Campina","-24.1224","-48.9022","SOC QT LTDA","CNPJ","Indústria de produtos minerais nao metálicos"
"45","23991",1,0,1,0,1,353870,"2399199","02",35,13411097,3,3,0,2062,1,2,3538709,"SP","Piracicaba","Piracicaba","Piracicaba","-22.7338","-47.6476","SOC QT LTDA","CNPJ","Indústria de produtos minerais nao metálicos"
"46","23991",1,0,0,0,0,355030,"2399199","04",35,1139000,11,11,0,2062,1,2,3550308,"SP","Metropolitana de São Paulo","São Paulo","São Paulo","-23.5329","-46.6395","SOC QT LTDA","CNPJ","Indústria de produtos minerais nao metálicos"
"47","23991",1,0,0,0,1,352585,"2399199","05",35,18535000,23,23,0,2062,1,2,3525854,"SP","Piracicaba","Piracicaba","Jumirim","-23.0884","-47.7868","SOC QT LTDA","CNPJ","Indústria de produtos minerais nao metálicos"
"48","23991",1,0,0,0,1,351240,"2399199","03",35,13490000,7,7,0,2305,1,2,3512407,"SP","Piracicaba","Limeira","Cordeirópolis","-22.4778","-47.4519",NA,"CNPJ","Indústria de produtos minerais nao metálicos"
"49","23991",1,0,0,0,0,351280,"2399199","04",35,13150001,18,18,0,2305,1,2,3512803,"SP","Campinas","Campinas","Cosmópolis","-22.6419","-47.1926",NA,"CNPJ","Indústria de produtos minerais nao metálicos"
"50","23991",1,0,0,0,1,355110,"2399199","02",35,18225000,4,4,0,2062,1,2,3551108,"SP","Macro Metropolitana Paulista","Sorocaba","Sarapuí","-23.6397","-47.8249","SOC QT LTDA","CNPJ","Indústria de produtos minerais nao metálicos"
"51","23991",1,0,0,0,1,355030,"2399199","02",35,3575100,1,1,0,2062,1,2,3550308,"SP","Metropolitana de São Paulo","São Paulo","São Paulo","-23.5329","-46.6395","SOC QT LTDA","CNPJ","Indústria de produtos minerais nao metálicos"
"52","09904",1,0,0,0,1,352140,"0990401","01",35,13495000,0,0,0,2062,1,1,3521408,"SP","Piracicaba","Limeira","Iracemápolis","-22.5832","-47.523","SOC QT LTDA","CNPJ","Extrativa mineral"
"53","23991",1,0,0,0,1,350590,"2399199","02",35,14300000,2,2,0,2135,1,2,3505906,"SP","Ribeirão Preto","Batatais","Batatais","-20.8929","-47.5921","FRM MER IND","CNPJ","Indústria de produtos minerais nao metálicos"
"54","23991",1,0,0,0,1,354750,"2399199","04",35,13670000,11,11,0,2305,1,2,3547502,"SP","Ribeirão Preto","Ribeirão Preto","Santa Rita do Passa Quatro","-21.7083","-47.478",NA,"CNPJ","Indústria de produtos minerais nao metálicos"
"55","23991",1,0,0,0,1,351830,"2399199","05",35,8900000,25,25,0,2062,1,2,3518305,"SP","Metropolitana de São Paulo","Mogi das Cruzes","Guararema","-23.4112","-46.0369","SOC QT LTDA","CNPJ","Indústria de produtos minerais nao metálicos"
"56","23991",1,0,0,0,0,353650,"2399199","05",35,13148192,41,41,0,2062,1,2,3536505,"SP","Campinas","Campinas","Paulínia","-22.7542","-47.1488","SOC QT LTDA","CNPJ","Indústria de produtos minerais nao metálicos"
"57","23991",1,0,0,0,0,350700,"2399199","05",35,18550000,38,38,0,2062,1,2,3507001,"SP","Itapetininga","Tatuí","Boituva","-23.2855","-47.6786","SOC QT LTDA","CNPJ","Indústria de produtos minerais nao metálicos"
"58","23991",1,0,0,0,0,351280,"2399199","04",35,13150001,12,12,0,2062,1,2,3512803,"SP","Campinas","Campinas","Cosmópolis","-22.6419","-47.1926","SOC QT LTDA","CNPJ","Indústria de produtos minerais nao metálicos"
"59","23991",1,0,0,0,1,352940,"2399199","03",35,9330150,9,9,0,2062,1,2,3529401,"SP","Metropolitana de São Paulo","São Paulo","Mauá","-23.6677","-46.4613","SOC QT LTDA","CNPJ","Indústria de produtos minerais nao metálicos"
"60","08100",1,0,1,0,0,353630,"0810099","05",35,14415000,36,36,0,2062,1,1,3536307,"SP","Ribeirão Preto","Franca","Patrocínio Paulista","-20.6384","-47.2801","SOC QT LTDA","CNPJ","Extrativa mineral"
"61","23991",1,0,0,0,1,355030,"2399199","03",35,3374001,5,5,0,2062,1,2,3550308,"SP","Metropolitana de São Paulo","São Paulo","São Paulo","-23.5329","-46.6395","SOC QT LTDA","CNPJ","Indústria de produtos minerais nao metálicos"
"62","23991",1,0,0,0,0,352500,"2399199","07",35,6612000,126,126,0,2305,1,2,3525003,"SP","Metropolitana de São Paulo","Osasco","Jandira","-23.5275","-46.9023",NA,"CNPJ","Indústria de produtos minerais nao metálicos"
"63","23991",1,0,0,0,1,350600,"2399199","02",35,17047136,1,1,0,2062,1,2,3506003,"SP","Bauru","Bauru","Bauru","-22.3246","-49.0871","SOC QT LTDA","CNPJ","Indústria de produtos minerais nao metálicos"
"64","08100",1,0,0,0,0,354380,"0810099","02",35,17740000,4,4,0,2062,1,1,3543808,"SP","Presidente Prudente","Adamantina","Rinópolis","-21.7284","-50.7239","SOC QT LTDA","CNPJ","Extrativa mineral"
"65","23991",1,0,0,0,0,350570,"2399199","03",35,6422150,5,5,0,2062,1,2,3505708,"SP","Metropolitana de São Paulo","Osasco","Barueri","-23.5057","-46.879","SOC QT LTDA","CNPJ","Indústria de produtos minerais nao metálicos"
"66","08100",1,0,0,0,0,350760,"0810099","06",35,12929598,54,54,0,2062,1,1,3507605,"SP","Macro Metropolitana Paulista","Bragança Paulista","Bragança Paulista","-22.9527","-46.5419","SOC QT LTDA","CNPJ","Extrativa mineral"
"67","23991",1,0,0,0,1,354890,"2399199","02",35,13572070,2,2,0,2135,1,2,3548906,"SP","Araraquara","São Carlos","São Carlos","-22.0174","-47.886","FRM MER IND","CNPJ","Indústria de produtos minerais nao metálicos"
"68","23991",1,0,0,0,1,355030,"2399199","03",35,8070390,6,6,0,2062,1,2,3550308,"SP","Metropolitana de São Paulo","São Paulo","São Paulo","-23.5329","-46.6395","SOC QT LTDA","CNPJ","Indústria de produtos minerais nao metálicos"
"69","23991",1,0,0,0,1,352230,"2399199","04",35,99999999,10,10,0,2305,1,2,3522307,"SP","Itapetininga","Itapetininga","Itapetininga","-23.5886","-48.0483",NA,"CNPJ","Indústria de produtos minerais nao metálicos"
"70","08100",1,0,0,0,0,350275,"0810099","06",35,18147000,64,64,0,2054,1,1,3502754,"SP","Macro Metropolitana Paulista","Sorocaba","Araçariguama","-23.4366","-47.0608","SA FECH","CNPJ","Extrativa mineral"
"71","23991",1,0,0,0,1,353710,"2399199","03",35,13920000,6,6,0,2062,1,2,3537107,"SP","Campinas","Campinas","Pedreira","-22.7413","-46.8948","SOC QT LTDA","CNPJ","Indústria de produtos minerais nao metálicos"
"72","23991",1,0,0,0,1,352340,"2399199","03",35,13252810,6,6,0,2062,1,2,3523404,"SP","Macro Metropolitana Paulista","Bragança Paulista","Itatiba","-23.0035","-46.8464","SOC QT LTDA","CNPJ","Indústria de produtos minerais nao metálicos"
"73","08100",1,0,0,0,0,350390,"0810099","02",35,7400015,1,1,0,2054,1,1,3503901,"SP","Metropolitana de São Paulo","Guarulhos","Arujá","-23.3965","-46.32","SA FECH","CNPJ","Extrativa mineral"
"74","08100",1,0,0,0,0,350920,"0810099","02",35,7750020,2,2,0,2054,1,1,3509205,"SP","Metropolitana de São Paulo","Osasco","Cajamar","-23.355","-46.8781","SA FECH","CNPJ","Extrativa mineral"
"75","08100",1,0,0,0,0,354680,"0810099","05",35,7500000,50,50,0,2054,1,1,3546801,"SP","Metropolitana de São Paulo","Guarulhos","Santa Isabel","-23.3172","-46.2237","SA FECH","CNPJ","Extrativa mineral"
"76","08100",1,0,0,0,0,352220,"0810099","05",35,6874260,52,52,0,2054,1,1,3522208,"SP","Metropolitana de São Paulo","Itapecerica da Serra","Itapecerica da Serra","-23.7161","-46.8572","SA FECH","CNPJ","Extrativa mineral"
"77","23991",1,0,0,0,1,355220,"2399199","03",35,18087120,9,9,0,2062,1,2,3552205,"SP","Macro Metropolitana Paulista","Sorocaba","Sorocaba","-23.4969","-47.4451","SOC QT LTDA","CNPJ","Indústria de produtos minerais nao metálicos"
"78","08100",1,0,0,0,0,354270,"0810099","03",35,14430000,6,6,0,2062,1,1,3542701,"SP","Ribeirão Preto","Franca","Restinga","-20.6056","-47.4833","SOC QT LTDA","CNPJ","Extrativa mineral"
"79","23991",1,0,0,0,1,355030,"2399199","02",35,4765010,2,2,0,2062,1,2,3550308,"SP","Metropolitana de São Paulo","São Paulo","São Paulo","-23.5329","-46.6395","SOC QT LTDA","CNPJ","Indústria de produtos minerais nao metálicos"
"80","23991",1,0,0,0,0,350410,"2399199","03",35,12954103,8,8,0,2062,1,2,3504107,"SP","Macro Metropolitana Paulista","Bragança Paulista","Atibaia","-23.1171","-46.5563","SOC QT LTDA","CNPJ","Indústria de produtos minerais nao metálicos"
"81","23991",1,0,0,0,0,355490,"2399199","02",35,15770000,2,2,0,2062,1,2,3554904,"SP","São José do Rio Preto","Jales","Três Fronteiras","-20.2344","-50.8905","SOC QT LTDA","CNPJ","Indústria de produtos minerais nao metálicos"
"82","23991",1,0,0,0,0,354380,"2399199","02",35,17740000,4,4,0,2062,1,2,3543808,"SP","Presidente Prudente","Adamantina","Rinópolis","-21.7284","-50.7239","SOC QT LTDA","CNPJ","Indústria de produtos minerais nao metálicos"
"83","23991",1,0,0,0,0,353100,"2399199","02",35,15275000,2,2,0,2062,1,2,3531001,"SP","São José do Rio Preto","Nhandeara","Monções","-20.8509","-50.0975","SOC QT LTDA","CNPJ","Indústria de produtos minerais nao metálicos"
"84","23991",1,0,0,0,0,353440,"2399199","04",35,6278010,10,10,0,2062,1,2,3534401,"SP","Metropolitana de São Paulo","Osasco","Osasco","-23.5324","-46.7916","SOC QT LTDA","CNPJ","Indústria de produtos minerais nao metálicos"
"85","23991",1,0,0,0,0,351240,"2399199","05",35,13490000,20,20,0,2062,1,2,3512407,"SP","Piracicaba","Limeira","Cordeirópolis","-22.4778","-47.4519","SOC QT LTDA","CNPJ","Indústria de produtos minerais nao metálicos"
"86","23991",1,0,1,0,1,350390,"2399199","04",35,7429825,18,18,0,2062,1,2,3503901,"SP","Metropolitana de São Paulo","Guarulhos","Arujá","-23.3965","-46.32","SOC QT LTDA","CNPJ","Indústria de produtos minerais nao metálicos"
"87","23991",1,0,0,0,1,350700,"2399199","06",35,18550000,60,60,0,2062,1,2,3507001,"SP","Itapetininga","Tatuí","Boituva","-23.2855","-47.6786","SOC QT LTDA","CNPJ","Indústria de produtos minerais nao metálicos"
"88","08100",1,0,0,0,0,352510,"0810099","02",35,14680000,2,2,0,2062,1,1,3525102,"SP","Ribeirão Preto","Ribeirão Preto","Jardinópolis","-21.0176","-47.7606","SOC QT LTDA","CNPJ","Extrativa mineral"
"89","08100",1,0,0,0,0,354850,"0810099","03",35,11220000,9,9,0,2062,1,1,3548500,"SP","Metropolitana de São Paulo","Santos","Santos","-23.9535","-46.335","SOC QT LTDA","CNPJ","Extrativa mineral"
"90","08100",1,0,0,0,0,350220,"0810099","04",35,18240000,18,18,0,2062,1,1,3502200,"SP","Itapetininga","Itapetininga","Angatuba","-23.4917","-48.4139","SOC QT LTDA","CNPJ","Extrativa mineral"
"91","23991",1,0,0,0,1,353600,"2399199","04",35,17730000,14,14,0,2305,1,2,3536000,"SP","Presidente Prudente","Adamantina","Parapuã","-21.7792","-50.7949",NA,"CNPJ","Indústria de produtos minerais nao metálicos"
"92","08100",1,0,0,0,0,354190,"0810099","05",35,12800000,35,35,0,2062,1,1,3541901,"SP","Vale do Paraíba Paulista","Guaratinguetá","Queluz","-22.5312","-44.7781","SOC QT LTDA","CNPJ","Extrativa mineral"
"93","23991",1,0,0,0,0,354515,"2399199","05",35,13440000,39,39,0,2062,1,2,3545159,"SP","Piracicaba","Piracicaba","Saltinho","-22.8442","-47.6754","SOC QT LTDA","CNPJ","Indústria de produtos minerais nao metálicos"
"94","23991",1,0,0,0,0,350715,"2399199","02",35,18475000,1,1,0,2305,1,2,3507159,"SP","Itapetininga","Itapeva","Bom Sucesso de Itararé","-24.3155","-49.1451",NA,"CNPJ","Indústria de produtos minerais nao metálicos"
"95","23991",1,0,0,0,0,352050,"2399199","05",35,13334200,27,27,0,2062,1,2,3520509,"SP","Campinas","Campinas","Indaiatuba","-23.0816","-47.2101","SOC QT LTDA","CNPJ","Indústria de produtos minerais nao metálicos"
"96","08100",1,0,0,0,0,355030,"0810099","06",35,2938000,61,61,0,2062,1,1,3550308,"SP","Metropolitana de São Paulo","São Paulo","São Paulo","-23.5329","-46.6395","SOC QT LTDA","CNPJ","Extrativa mineral"
"97","08100",1,0,0,0,0,355030,"0810099","02",35,2118001,1,1,0,2062,1,1,3550308,"SP","Metropolitana de São Paulo","São Paulo","São Paulo","-23.5329","-46.6395","SOC QT LTDA","CNPJ","Extrativa mineral"
"98","23991",1,0,1,0,1,351380,"2399199","02",35,9991000,2,2,0,2062,1,2,3513801,"SP","Metropolitana de São Paulo","São Paulo","Diadema","-23.6813","-46.6205","SOC QT LTDA","CNPJ","Indústria de produtos minerais nao metálicos"
"99","08100",1,0,0,0,0,352850,"0810099","05",35,7600000,36,36,0,2054,1,1,3528502,"SP","Metropolitana de São Paulo","Franco da Rocha","Mairiporã","-23.3171","-46.5897","SA FECH","CNPJ","Extrativa mineral"
"100","08100",1,0,0,0,0,355220,"0810099","05",35,18023000,34,34,0,2054,1,1,3552205,"SP","Macro Metropolitana Paulista","Sorocaba","Sorocaba","-23.4969","-47.4451","SA FECH","CNPJ","Extrativa mineral"
"101","09904",1,0,0,0,0,353440,"0990401","07",35,6278000,143,143,0,2062,1,1,3534401,"SP","Metropolitana de São Paulo","Osasco","Osasco","-23.5324","-46.7916","SOC QT LTDA","CNPJ","Extrativa mineral"
"102","08100",1,0,0,0,0,350920,"0810099","05",35,7752065,31,31,0,2054,1,1,3509205,"SP","Metropolitana de São Paulo","Osasco","Cajamar","-23.355","-46.8781","SA FECH","CNPJ","Extrativa mineral"
"103","08100",1,0,0,0,0,350570,"0810099","04",35,6407000,23,23,0,2054,1,1,3505708,"SP","Metropolitana de São Paulo","Osasco","Barueri","-23.5057","-46.879","SA FECH","CNPJ","Extrativa mineral"
"104","23991",1,0,0,0,0,355030,"2399199","05",35,2712070,61,61,0,2062,1,2,3550308,"SP","Metropolitana de São Paulo","São Paulo","São Paulo","-23.5329","-46.6395","SOC QT LTDA","CNPJ","Indústria de produtos minerais nao metálicos"
"105","23991",1,0,0,0,0,352310,"2399199","06",35,8597630,50,50,0,2062,1,2,3523107,"SP","Metropolitana de São Paulo","Mogi das Cruzes","Itaquaquecetuba","-23.4835","-46.3457","SOC QT LTDA","CNPJ","Indústria de produtos minerais nao metálicos"
"106","23991",1,0,0,0,0,350840,"2399199","05",35,13315000,23,23,0,2062,1,2,3508405,"SP","Macro Metropolitana Paulista","Sorocaba","Cabreúva","-23.3053","-47.1362","SOC QT LTDA","CNPJ","Indústria de produtos minerais nao metálicos"
"107","23991",1,0,0,0,0,350570,"2399199","02",35,6417010,2,2,0,2062,1,2,3505708,"SP","Metropolitana de São Paulo","Osasco","Barueri","-23.5057","-46.879","SOC QT LTDA","CNPJ","Indústria de produtos minerais nao metálicos"
"108","23991",1,0,0,0,1,354890,"2399199","01",35,13566670,0,0,0,2062,1,2,3548906,"SP","Araraquara","São Carlos","São Carlos","-22.0174","-47.886","SOC QT LTDA","CNPJ","Indústria de produtos minerais nao metálicos"
"109","23991",1,0,0,0,1,354340,"2399199","01",35,14015050,0,0,0,2062,1,2,3543402,"SP","Ribeirão Preto","Ribeirão Preto","Ribeirão Preto","-21.1699","-47.8099","SOC QT LTDA","CNPJ","Indústria de produtos minerais nao metálicos"
"110","23991",1,0,0,0,1,353800,"2399199","03",35,12420360,8,8,0,2062,1,2,3538006,"SP","Vale do Paraíba Paulista","São José dos Campos","Pindamonhangaba","-22.9246","-45.4613","SOC QT LTDA","CNPJ","Indústria de produtos minerais nao metálicos"
"111","08100",1,0,0,0,1,352340,"0810099","02",35,13252365,3,3,0,2305,1,1,3523404,"SP","Macro Metropolitana Paulista","Bragança Paulista","Itatiba","-23.0035","-46.8464",NA,"CNPJ","Extrativa mineral"
"112","08100",1,0,0,0,1,350995,"0810099","03",35,12615000,5,5,0,2305,1,1,3509957,"SP","Vale do Paraíba Paulista","Guaratinguetá","Canas","-22.7003","-45.0521",NA,"CNPJ","Extrativa mineral"
"113","23991",1,0,0,0,1,353070,"2399199","02",35,13846010,4,4,0,2062,1,2,3530706,"SP","Campinas","Mogi Mirim","Mogi Guaçu","-22.3675","-46.9428","SOC QT LTDA","CNPJ","Indústria de produtos minerais nao metálicos"
"114","23991",1,0,0,0,1,353440,"2399199","03",35,6298007,9,9,0,2135,1,2,3534401,"SP","Metropolitana de São Paulo","Osasco","Osasco","-23.5324","-46.7916","FRM MER IND","CNPJ","Indústria de produtos minerais nao metálicos"
"115","23991",1,0,0,0,1,352220,"2399199","02",35,6870340,1,1,0,2135,1,2,3522208,"SP","Metropolitana de São Paulo","Itapecerica da Serra","Itapecerica da Serra","-23.7161","-46.8572","FRM MER IND","CNPJ","Indústria de produtos minerais nao metálicos"
"116","23991",1,0,0,0,0,355030,"2399199","04",35,2053000,16,16,0,2062,1,2,3550308,"SP","Metropolitana de São Paulo","São Paulo","São Paulo","-23.5329","-46.6395","SOC QT LTDA","CNPJ","Indústria de produtos minerais nao metálicos"
"117","23991",1,0,0,0,0,351380,"2399199","02",35,9980240,2,2,0,2062,1,2,3513801,"SP","Metropolitana de São Paulo","São Paulo","Diadema","-23.6813","-46.6205","SOC QT LTDA","CNPJ","Indústria de produtos minerais nao metálicos"
"118","23991",1,0,0,0,0,351370,"2399199","04",35,13690000,15,15,0,2062,1,2,3513702,"SP","Araraquara","São Carlos","Descalvado","-21.9002","-47.6181","SOC QT LTDA","CNPJ","Indústria de produtos minerais nao metálicos"
"119","23991",1,0,0,0,0,355220,"2399199","04",35,18103000,16,16,0,2062,1,2,3552205,"SP","Macro Metropolitana Paulista","Sorocaba","Sorocaba","-23.4969","-47.4451","SOC QT LTDA","CNPJ","Indústria de produtos minerais nao metálicos"
"120","23991",1,0,0,0,0,355410,"2399199","02",35,12072250,1,1,0,2062,1,2,3554102,"SP","Vale do Paraíba Paulista","São José dos Campos","Taubaté","-23.0104","-45.5593","SOC QT LTDA","CNPJ","Indústria de produtos minerais nao metálicos"
"121","09904",1,0,0,0,1,350810,"0990403","03",35,15290000,6,6,0,2062,1,1,3508108,"SP","Araçatuba","Birigui","Buritama","-21.0661","-50.1475","SOC QT LTDA","CNPJ","Extrativa mineral"
"122","09904",1,0,0,0,0,354515,"0990403","02",35,13440000,2,2,0,2062,1,1,3545159,"SP","Piracicaba","Piracicaba","Saltinho","-22.8442","-47.6754","SOC QT LTDA","CNPJ","Extrativa mineral"
"123","23991",1,0,0,0,1,355030,"2399199","02",35,3259120,3,3,0,2062,1,2,3550308,"SP","Metropolitana de São Paulo","São Paulo","São Paulo","-23.5329","-46.6395","SOC QT LTDA","CNPJ","Indústria de produtos minerais nao metálicos"
"124","23991",1,0,0,0,0,355030,"2399199","05",35,3480000,26,26,0,2062,1,2,3550308,"SP","Metropolitana de São Paulo","São Paulo","São Paulo","-23.5329","-46.6395","SOC QT LTDA","CNPJ","Indústria de produtos minerais nao metálicos"
"125","23991",1,0,0,0,0,354390,"2399199","06",35,13508000,102,102,0,2062,1,2,3543907,"SP","Piracicaba","Rio Claro","Rio Claro","-22.3984","-47.5546","SOC QT LTDA","CNPJ","Indústria de produtos minerais nao metálicos"
"126","23991",1,0,0,0,0,353130,"2399199","02",35,15910000,4,4,0,2062,1,2,3531308,"SP","Ribeirão Preto","Jaboticabal","Monte Alto","-21.2655","-48.4971","SOC QT LTDA","CNPJ","Indústria de produtos minerais nao metálicos"
"127","23991",1,0,0,0,0,354390,"2399199","05",35,13501600,22,22,0,2054,1,2,3543907,"SP","Piracicaba","Rio Claro","Rio Claro","-22.3984","-47.5546","SA FECH","CNPJ","Indústria de produtos minerais nao metálicos"
"128","23991",1,0,0,0,0,353130,"2399199","01",35,15910000,0,0,0,2062,1,2,3531308,"SP","Ribeirão Preto","Jaboticabal","Monte Alto","-21.2655","-48.4971","SOC QT LTDA","CNPJ","Indústria de produtos minerais nao metálicos"
"129","23991",1,0,0,0,1,350130,"2399199","02",35,19160000,1,1,0,2135,1,2,3501301,"SP","Presidente Prudente","Presidente Prudente","Álvares Machado","-22.0764","-51.4722","FRM MER IND","CNPJ","Indústria de produtos minerais nao metálicos"
"130","23991",1,0,0,0,0,354680,"2399199","05",35,7500000,22,22,0,2305,1,2,3546801,"SP","Metropolitana de São Paulo","Guarulhos","Santa Isabel","-23.3172","-46.2237",NA,"CNPJ","Indústria de produtos minerais nao metálicos"
"131","08100",1,0,0,0,0,354430,"0810099","05",35,12580000,42,42,0,2062,1,1,3544301,"SP","Vale do Paraíba Paulista","Guaratinguetá","Roseira","-22.8938","-45.307","SOC QT LTDA","CNPJ","Extrativa mineral"
"132","08100",1,0,0,0,0,354340,"0810099","05",35,14001970,51,51,0,2062,1,1,3543402,"SP","Ribeirão Preto","Ribeirão Preto","Ribeirão Preto","-21.1699","-47.8099","SOC QT LTDA","CNPJ","Extrativa mineral"
"133","08100",1,0,0,0,0,351710,"0810099","05",35,16270000,21,21,0,2062,1,1,3517109,"SP","Araçatuba","Birigui","Glicério","-21.3812","-50.2123","SOC QT LTDA","CNPJ","Extrativa mineral"
"134","23991",1,0,0,0,0,351380,"2399199","02",35,9961680,4,4,0,2062,1,2,3513801,"SP","Metropolitana de São Paulo","São Paulo","Diadema","-23.6813","-46.6205","SOC QT LTDA","CNPJ","Indústria de produtos minerais nao metálicos"
"135","23991",1,0,0,0,0,355170,"2399199","03",35,14165428,8,8,0,2062,1,2,3551702,"SP","Ribeirão Preto","Ribeirão Preto","Sertãozinho","-21.1316","-47.9875","SOC QT LTDA","CNPJ","Indústria de produtos minerais nao metálicos"
"136","23991",1,0,0,0,1,355400,"2399199","03",35,18277049,5,5,0,2135,1,2,3554003,"SP","Itapetininga","Tatuí","Tatuí","-23.3487","-47.8461","FRM MER IND","CNPJ","Indústria de produtos minerais nao metálicos"
"137","23991",1,0,0,0,0,350460,"2399199","04",35,15115000,10,10,0,2062,1,2,3504602,"SP","São José do Rio Preto","São José do Rio Preto","Bady Bassitt","-20.9197","-49.4385","SOC QT LTDA","CNPJ","Indústria de produtos minerais nao metálicos"
"138","08100",1,0,0,0,0,355100,"0810099","03",35,11346300,7,7,0,2062,1,1,3551009,"SP","Metropolitana de São Paulo","Santos","São Vicente","-23.9574","-46.3883","SOC QT LTDA","CNPJ","Extrativa mineral"
"139","08100",1,0,0,0,0,353060,"0810099","02",35,8710971,4,4,0,2062,1,1,3530607,"SP","Metropolitana de São Paulo","Mogi das Cruzes","Mogi das Cruzes","-23.5208","-46.1854","SOC QT LTDA","CNPJ","Extrativa mineral"
"140","23991",1,0,0,0,0,354390,"2399199","03",35,13505812,6,6,0,2062,1,2,3543907,"SP","Piracicaba","Rio Claro","Rio Claro","-22.3984","-47.5546","SOC QT LTDA","CNPJ","Indústria de produtos minerais nao metálicos"
"141","23991",1,0,0,0,0,354390,"2399199","07",35,13505645,228,228,0,2062,1,2,3543907,"SP","Piracicaba","Rio Claro","Rio Claro","-22.3984","-47.5546","SOC QT LTDA","CNPJ","Indústria de produtos minerais nao metálicos"
"142","08100",1,0,0,0,1,352280,"0810099","04",35,18480000,12,12,0,2062,1,1,3522802,"SP","Itapetininga","Itapeva","Itaporanga","-23.7043","-49.4819","SOC QT LTDA","CNPJ","Extrativa mineral"
"143","23991",1,0,0,0,0,355250,"2399199","05",35,8680130,37,37,0,2062,1,2,3552502,"SP","Metropolitana de São Paulo","Mogi das Cruzes","Suzano","-23.5448","-46.3112","SOC QT LTDA","CNPJ","Indústria de produtos minerais nao metálicos"
"144","09904",1,0,0,0,1,355030,"0990403","03",35,4040004,9,9,0,2062,1,1,3550308,"SP","Metropolitana de São Paulo","São Paulo","São Paulo","-23.5329","-46.6395","SOC QT LTDA","CNPJ","Extrativa mineral"
"145","23991",1,0,0,0,0,350850,"2399199","02",35,12283510,1,1,0,2062,1,2,3508504,"SP","Vale do Paraíba Paulista","São José dos Campos","Caçapava","-23.0992","-45.7076","SOC QT LTDA","CNPJ","Indústria de produtos minerais nao metálicos"
"146","08100",1,0,0,0,0,354680,"0810099","06",35,7500970,68,68,0,2062,1,1,3546801,"SP","Metropolitana de São Paulo","Guarulhos","Santa Isabel","-23.3172","-46.2237","SOC QT LTDA","CNPJ","Extrativa mineral"
"147","23991",1,0,0,0,0,354240,"2399199","03",35,19570000,8,8,0,2062,1,2,3542404,"SP","Presidente Prudente","Presidente Prudente","Regente Feijó","-22.2181","-51.3055","SOC QT LTDA","CNPJ","Indústria de produtos minerais nao metálicos"
"148","08100",1,0,0,0,0,352690,"0810099","04",35,13480970,11,11,0,2062,1,1,3526902,"SP","Piracicaba","Limeira","Limeira","-22.566","-47.397","SOC QT LTDA","CNPJ","Extrativa mineral"
"149","23991",1,0,0,0,0,354870,"2399199","06",35,9842000,59,59,0,2062,1,2,3548708,"SP","Metropolitana de São Paulo","São Paulo","São Bernardo do Campo","-23.6914","-46.5646","SOC QT LTDA","CNPJ","Indústria de produtos minerais nao metálicos"
"150","23991",1,0,0,0,0,353060,"2399199","05",35,8820150,33,33,0,2062,1,2,3530607,"SP","Metropolitana de São Paulo","Mogi das Cruzes","Mogi das Cruzes","-23.5208","-46.1854","SOC QT LTDA","CNPJ","Indústria de produtos minerais nao metálicos"
"151","23991",1,0,0,0,0,355030,"2399199","02",35,4531090,1,1,0,2062,1,2,3550308,"SP","Metropolitana de São Paulo","São Paulo","São Paulo","-23.5329","-46.6395","SOC QT LTDA","CNPJ","Indústria de produtos minerais nao metálicos"
"152","23991",1,0,0,0,0,352050,"2399199","06",35,13347035,73,73,0,2062,1,2,3520509,"SP","Campinas","Campinas","Indaiatuba","-23.0816","-47.2101","SOC QT LTDA","CNPJ","Indústria de produtos minerais nao metálicos"
"153","23991",1,0,0,0,1,351380,"2399199","03",35,9942080,5,5,0,2062,1,2,3513801,"SP","Metropolitana de São Paulo","São Paulo","Diadema","-23.6813","-46.6205","SOC QT LTDA","CNPJ","Indústria de produtos minerais nao metálicos"
"154","23991",1,0,0,0,0,354870,"2399199","06",35,9656000,78,78,0,2062,1,2,3548708,"SP","Metropolitana de São Paulo","São Paulo","São Bernardo do Campo","-23.6914","-46.5646","SOC QT LTDA","CNPJ","Indústria de produtos minerais nao metálicos"
"155","08100",1,0,0,0,0,355400,"0810099","06",35,18270010,77,77,0,2062,1,1,3554003,"SP","Itapetininga","Tatuí","Tatuí","-23.3487","-47.8461","SOC QT LTDA","CNPJ","Extrativa mineral"
"156","23991",1,0,0,0,0,355620,"2399199","02",35,13277023,2,2,0,2062,1,2,3556206,"SP","Campinas","Campinas","Valinhos","-22.9698","-46.9974","SOC QT LTDA","CNPJ","Indústria de produtos minerais nao metálicos"
"157","08100",1,0,0,0,0,354340,"0810099","06",35,14001970,79,79,0,2062,1,1,3543402,"SP","Ribeirão Preto","Ribeirão Preto","Ribeirão Preto","-21.1699","-47.8099","SOC QT LTDA","CNPJ","Extrativa mineral"
"158","23991",1,0,0,0,0,353070,"2399199","02",35,13849224,2,2,0,2062,1,2,3530706,"SP","Campinas","Mogi Mirim","Mogi Guaçu","-22.3675","-46.9428","SOC QT LTDA","CNPJ","Indústria de produtos minerais nao metálicos"
"159","23991",1,0,0,0,0,353670,"2399199","06",35,17280000,106,106,0,2062,1,2,3536703,"SP","Bauru","Jaú","Pederneiras","-22.3511","-48.7781","SOC QT LTDA","CNPJ","Indústria de produtos minerais nao metálicos"
"160","23991",1,1,0,0,0,353670,"2399199","01",35,17280000,0,0,0,2062,1,2,3536703,"SP","Bauru","Jaú","Pederneiras","-22.3511","-48.7781","SOC QT LTDA","CNPJ","Indústria de produtos minerais nao metálicos"
"161","23991",1,1,0,0,0,353670,"2399199","03",35,17280000,5,5,0,2062,1,2,3536703,"SP","Bauru","Jaú","Pederneiras","-22.3511","-48.7781","SOC QT LTDA","CNPJ","Indústria de produtos minerais nao metálicos"
"162","23991",1,1,0,0,0,353670,"2399199","02",35,17280000,2,2,0,2062,1,2,3536703,"SP","Bauru","Jaú","Pederneiras","-22.3511","-48.7781","SOC QT LTDA","CNPJ","Indústria de produtos minerais nao metálicos"
"163","23991",1,1,0,0,0,353670,"2399199","02",35,17280000,1,1,0,2062,1,2,3536703,"SP","Bauru","Jaú","Pederneiras","-22.3511","-48.7781","SOC QT LTDA","CNPJ","Indústria de produtos minerais nao metálicos"
"164","23991",1,1,0,0,0,353670,"2399199","02",35,17280000,1,1,0,2062,1,2,3536703,"SP","Bauru","Jaú","Pederneiras","-22.3511","-48.7781","SOC QT LTDA","CNPJ","Indústria de produtos minerais nao metálicos"
"165","23991",1,1,0,0,0,353670,"2399199","02",35,17280000,3,3,0,2062,1,2,3536703,"SP","Bauru","Jaú","Pederneiras","-22.3511","-48.7781","SOC QT LTDA","CNPJ","Indústria de produtos minerais nao metálicos"
"166","23991",1,1,0,0,0,353670,"2399199","02",35,17280000,1,1,0,2062,1,2,3536703,"SP","Bauru","Jaú","Pederneiras","-22.3511","-48.7781","SOC QT LTDA","CNPJ","Indústria de produtos minerais nao metálicos"
"167","23991",1,1,0,0,0,353670,"2399199","04",35,17280000,14,14,0,2062,1,2,3536703,"SP","Bauru","Jaú","Pederneiras","-22.3511","-48.7781","SOC QT LTDA","CNPJ","Indústria de produtos minerais nao metálicos"
"168","23991",1,1,0,0,0,353670,"2399199","03",35,17280000,7,7,0,2062,1,2,3536703,"SP","Bauru","Jaú","Pederneiras","-22.3511","-48.7781","SOC QT LTDA","CNPJ","Indústria de produtos minerais nao metálicos"
"169","23991",1,1,0,0,0,353670,"2399199","02",35,17280000,3,3,0,2062,1,2,3536703,"SP","Bauru","Jaú","Pederneiras","-22.3511","-48.7781","SOC QT LTDA","CNPJ","Indústria de produtos minerais nao metálicos"
"170","23991",1,1,0,0,0,353670,"2399199","02",35,17280000,3,3,0,2062,1,2,3536703,"SP","Bauru","Jaú","Pederneiras","-22.3511","-48.7781","SOC QT LTDA","CNPJ","Indústria de produtos minerais nao metálicos"
"171","23991",1,1,0,0,0,353670,"2399199","01",35,17280000,0,0,0,2062,1,2,3536703,"SP","Bauru","Jaú","Pederneiras","-22.3511","-48.7781","SOC QT LTDA","CNPJ","Indústria de produtos minerais nao metálicos"
"172","23991",1,1,0,0,0,353670,"2399199","01",35,17280000,0,0,0,2062,1,2,3536703,"SP","Bauru","Jaú","Pederneiras","-22.3511","-48.7781","SOC QT LTDA","CNPJ","Indústria de produtos minerais nao metálicos"
"173","23991",1,1,0,0,0,353670,"2399199","01",35,17280000,0,0,0,2062,1,2,3536703,"SP","Bauru","Jaú","Pederneiras","-22.3511","-48.7781","SOC QT LTDA","CNPJ","Indústria de produtos minerais nao metálicos"
"174","23991",1,1,0,0,0,353670,"2399199","01",35,17280000,0,0,0,2062,1,2,3536703,"SP","Bauru","Jaú","Pederneiras","-22.3511","-48.7781","SOC QT LTDA","CNPJ","Indústria de produtos minerais nao metálicos"
"175","23991",1,1,0,0,0,353670,"2399199","02",35,17280000,1,1,0,2062,1,2,3536703,"SP","Bauru","Jaú","Pederneiras","-22.3511","-48.7781","SOC QT LTDA","CNPJ","Indústria de produtos minerais nao metálicos"
"176","23991",1,1,0,0,0,353670,"2399199","01",35,17280000,0,0,0,2062,1,2,3536703,"SP","Bauru","Jaú","Pederneiras","-22.3511","-48.7781","SOC QT LTDA","CNPJ","Indústria de produtos minerais nao metálicos"
"177","08100",1,0,0,0,0,354610,"0810099","04",35,15785000,15,15,0,2062,1,1,3546108,"SP","São José do Rio Preto","Jales","Santa Clara d'Oeste","-20.09","-50.9491","SOC QT LTDA","CNPJ","Extrativa mineral"
"178","23991",1,0,0,0,0,350400,"2399199","03",35,19812010,9,9,0,2062,1,2,3504008,"SP","Assis","Assis","Assis","-22.66","-50.4183","SOC QT LTDA","CNPJ","Indústria de produtos minerais nao metálicos"
"179","08100",1,0,0,0,0,353550,"0810099","05",35,19700000,53,53,0,2062,1,1,3535507,"SP","Assis","Assis","Paraguaçu Paulista","-22.4114","-50.5732","SOC QT LTDA","CNPJ","Extrativa mineral"
"180","23991",1,0,0,0,0,350950,"2399199","03",35,13070017,6,6,0,2062,1,2,3509502,"SP","Campinas","Campinas","Campinas","-22.9053","-47.0659","SOC QT LTDA","CNPJ","Indústria de produtos minerais nao metálicos"
"181","23991",1,0,0,0,1,351880,"2399199","04",35,7056020,15,15,0,2305,1,2,3518800,"SP","Metropolitana de São Paulo","Guarulhos","Guarulhos","-23.4538","-46.5333",NA,"CNPJ","Indústria de produtos minerais nao metálicos"
"182","23991",1,0,0,0,0,352720,"2399199","05",35,12600970,29,29,0,2062,1,2,3527207,"SP","Vale do Paraíba Paulista","Guaratinguetá","Lorena","-22.7334","-45.1197","SOC QT LTDA","CNPJ","Indústria de produtos minerais nao metálicos"
"183","23991",1,0,0,0,0,355670,"2399199","07",35,13284400,124,124,0,2062,1,2,3556701,"SP","Campinas","Campinas","Vinhedo","-23.0302","-46.9833","SOC QT LTDA","CNPJ","Indústria de produtos minerais nao metálicos"
"184","23991",1,0,0,0,0,351380,"2399199","04",35,9990090,12,12,0,2062,1,2,3513801,"SP","Metropolitana de São Paulo","São Paulo","Diadema","-23.6813","-46.6205","SOC QT LTDA","CNPJ","Indústria de produtos minerais nao metálicos"
"185","23991",1,0,0,0,0,351380,"2399199","02",35,9941640,1,1,0,2062,1,2,3513801,"SP","Metropolitana de São Paulo","São Paulo","Diadema","-23.6813","-46.6205","SOC QT LTDA","CNPJ","Indústria de produtos minerais nao metálicos"
"186","23991",1,0,0,0,0,353650,"2399199","04",35,13140031,18,18,0,2062,1,2,3536505,"SP","Campinas","Campinas","Paulínia","-22.7542","-47.1488","SOC QT LTDA","CNPJ","Indústria de produtos minerais nao metálicos"
"187","08100",1,0,0,0,0,354060,"0810099","05",35,18540000,34,34,0,2062,1,1,3540606,"SP","Macro Metropolitana Paulista","Sorocaba","Porto Feliz","-23.2093","-47.5251","SOC QT LTDA","CNPJ","Extrativa mineral"
"188","08100",1,0,0,0,0,354060,"0810099","02",35,18540000,4,4,0,2062,1,1,3540606,"SP","Macro Metropolitana Paulista","Sorocaba","Porto Feliz","-23.2093","-47.5251","SOC QT LTDA","CNPJ","Extrativa mineral"
"189","23991",1,0,0,0,0,350900,"2399199","03",35,7743050,6,6,0,2062,1,2,3509007,"SP","Metropolitana de São Paulo","Franco da Rocha","Caieiras","-23.3607","-46.7397","SOC QT LTDA","CNPJ","Indústria de produtos minerais nao metálicos"
"190","23991",1,0,0,0,0,352850,"2399199","03",35,7600000,6,6,0,2062,1,2,3528502,"SP","Metropolitana de São Paulo","Franco da Rocha","Mairiporã","-23.3171","-46.5897","SOC QT LTDA","CNPJ","Indústria de produtos minerais nao metálicos"
"191","23991",1,0,0,0,0,355030,"2399199","05",35,2750000,32,32,0,2062,1,2,3550308,"SP","Metropolitana de São Paulo","São Paulo","São Paulo","-23.5329","-46.6395","SOC QT LTDA","CNPJ","Indústria de produtos minerais nao metálicos"
"192","23991",1,0,0,0,1,351380,"2399199","04",35,9941720,15,15,0,2062,1,2,3513801,"SP","Metropolitana de São Paulo","São Paulo","Diadema","-23.6813","-46.6205","SOC QT LTDA","CNPJ","Indústria de produtos minerais nao metálicos"
"193","23991",1,0,0,0,1,350410,"2399199","03",35,12942420,6,6,0,2062,1,2,3504107,"SP","Macro Metropolitana Paulista","Bragança Paulista","Atibaia","-23.1171","-46.5563","SOC QT LTDA","CNPJ","Indústria de produtos minerais nao metálicos"
"194","08100",1,0,0,0,1,350840,"0810099","02",35,13318000,3,3,0,2135,1,1,3508405,"SP","Macro Metropolitana Paulista","Sorocaba","Cabreúva","-23.3053","-47.1362","FRM MER IND","CNPJ","Extrativa mineral"
"195","23991",1,0,0,0,1,353340,"2399199","04",35,13380248,17,17,0,2135,1,2,3533403,"SP","Campinas","Campinas","Nova Odessa","-22.7832","-47.2941","FRM MER IND","CNPJ","Indústria de produtos minerais nao metálicos"
"196","08100",1,0,0,0,0,354580,"0810099","05",35,13450269,27,27,0,2062,1,1,3545803,"SP","Campinas","Campinas","Santa Bárbara d'Oeste","-22.7553","-47.4143","SOC QT LTDA","CNPJ","Extrativa mineral"
"197","23991",1,0,0,0,0,351880,"2399199","02",35,7031190,3,3,0,2062,1,2,3518800,"SP","Metropolitana de São Paulo","Guarulhos","Guarulhos","-23.4538","-46.5333","SOC QT LTDA","CNPJ","Indústria de produtos minerais nao metálicos"
"198","08100",1,0,0,0,0,352690,"0810099","05",35,13486199,24,24,0,2054,1,1,3526902,"SP","Piracicaba","Limeira","Limeira","-22.566","-47.397","SA FECH","CNPJ","Extrativa mineral"
"199","08100",1,0,0,0,0,355680,"0810099","03",35,14740000,6,6,0,2062,1,1,3556800,"SP","Ribeirão Preto","Jaboticabal","Viradouro","-20.8734","-48.293","SOC QT LTDA","CNPJ","Extrativa mineral"
"200","23991",1,0,0,0,1,350410,"2399199","02",35,12948010,2,2,0,2062,1,2,3504107,"SP","Macro Metropolitana Paulista","Bragança Paulista","Atibaia","-23.1171","-46.5563","SOC QT LTDA","CNPJ","Indústria de produtos minerais nao metálicos"
"201","23991",1,0,0,0,1,355030,"2399199","01",35,5425011,0,0,0,2062,1,2,3550308,"SP","Metropolitana de São Paulo","São Paulo","São Paulo","-23.5329","-46.6395","SOC QT LTDA","CNPJ","Indústria de produtos minerais nao metálicos"
"202","23991",1,0,0,0,1,352730,"2399199","03",35,13290000,9,9,0,2062,1,2,3527306,"SP","Macro Metropolitana Paulista","Jundiaí","Louveira","-23.0856","-46.9484","SOC QT LTDA","CNPJ","Indústria de produtos minerais nao metálicos"
"203","08100",1,0,0,0,0,353670,"0810099","02",35,17280000,3,3,0,2062,1,1,3536703,"SP","Bauru","Jaú","Pederneiras","-22.3511","-48.7781","SOC QT LTDA","CNPJ","Extrativa mineral"
"204","08100",1,0,0,0,1,350320,"0810099","04",35,14801139,11,11,0,2062,1,1,3503208,"SP","Araraquara","Araraquara","Araraquara","-21.7845","-48.178","SOC QT LTDA","CNPJ","Extrativa mineral"
"205","08100",1,0,0,0,0,354060,"0810099","01",35,18540000,0,0,0,2062,1,1,3540606,"SP","Macro Metropolitana Paulista","Sorocaba","Porto Feliz","-23.2093","-47.5251","SOC QT LTDA","CNPJ","Extrativa mineral"
"206","08100",1,0,0,0,0,352530,"0810099","04",35,17201970,13,13,0,2062,1,1,3525300,"SP","Bauru","Jaú","Jaú","-22.2936","-48.5592","SOC QT LTDA","CNPJ","Extrativa mineral"
"207","23991",1,0,0,0,1,355030,"2399199","04",35,4202020,19,19,0,2062,1,2,3550308,"SP","Metropolitana de São Paulo","São Paulo","São Paulo","-23.5329","-46.6395","SOC QT LTDA","CNPJ","Indústria de produtos minerais nao metálicos"
"208","23991",1,0,0,0,0,350190,"2399199","04",35,13903050,15,15,0,2062,1,2,3501905,"SP","Campinas","Amparo","Amparo","-22.7088","-46.772","SOC QT LTDA","CNPJ","Indústria de produtos minerais nao metálicos"
"209","23991",1,0,0,0,0,353870,"2399199","04",35,13424694,10,10,0,2062,1,2,3538709,"SP","Piracicaba","Piracicaba","Piracicaba","-22.7338","-47.6476","SOC QT LTDA","CNPJ","Indústria de produtos minerais nao metálicos"
"210","08100",1,0,0,0,1,354750,"0810099","02",35,13670000,1,1,0,2062,1,1,3547502,"SP","Ribeirão Preto","Ribeirão Preto","Santa Rita do Passa Quatro","-21.7083","-47.478","SOC QT LTDA","CNPJ","Extrativa mineral"
"211","08100",1,0,0,0,0,352590,"0810099","02",35,13219070,4,4,0,2062,1,1,3525904,"SP","Macro Metropolitana Paulista","Jundiaí","Jundiaí","-23.1852","-46.8974","SOC QT LTDA","CNPJ","Extrativa mineral"
"212","09904",1,0,0,0,1,351870,"0990402","02",35,11460102,1,1,0,2062,1,1,3518701,"SP","Metropolitana de São Paulo","Santos","Guarujá","-23.9888","-46.258","SOC QT LTDA","CNPJ","Extrativa mineral"
"213","08100",1,0,0,0,0,354640,"0810099","05",35,18900000,39,39,0,2062,1,1,3546405,"SP","Assis","Ourinhos","Santa Cruz do Rio Pardo","-22.8988","-49.6354","SOC QT LTDA","CNPJ","Extrativa mineral"
"214","23991",1,0,0,0,0,352050,"2399199","05",35,13347300,21,21,0,2062,1,2,3520509,"SP","Campinas","Campinas","Indaiatuba","-23.0816","-47.2101","SOC QT LTDA","CNPJ","Indústria de produtos minerais nao metálicos"
"215","23991",1,0,0,0,0,355210,"2399199","03",35,13960000,9,9,0,2062,1,2,3552106,"SP","Campinas","Amparo","Socorro","-22.5903","-46.5251","SOC QT LTDA","CNPJ","Indústria de produtos minerais nao metálicos"
"216","23991",1,0,0,0,0,355030,"2399199","05",35,2512000,23,23,0,2062,1,2,3550308,"SP","Metropolitana de São Paulo","São Paulo","São Paulo","-23.5329","-46.6395","SOC QT LTDA","CNPJ","Indústria de produtos minerais nao metálicos"
"217","08100",1,0,0,0,1,355030,"0810099","04",35,4852012,10,10,0,2062,1,1,3550308,"SP","Metropolitana de São Paulo","São Paulo","São Paulo","-23.5329","-46.6395","SOC QT LTDA","CNPJ","Extrativa mineral"
"218","08100",1,0,0,0,0,354890,"0810099","04",35,13571510,10,10,0,2062,1,1,3548906,"SP","Araraquara","São Carlos","São Carlos","-22.0174","-47.886","SOC QT LTDA","CNPJ","Extrativa mineral"
"219","23991",1,0,0,0,0,351880,"2399199","04",35,7043060,14,14,0,2062,1,2,3518800,"SP","Metropolitana de São Paulo","Guarulhos","Guarulhos","-23.4538","-46.5333","SOC QT LTDA","CNPJ","Indústria de produtos minerais nao metálicos"
"220","08100",1,0,0,0,0,353110,"0810099","05",35,11730000,44,44,0,2062,1,1,3531100,"SP","Litoral Sul Paulista","Itanhaém","Mongaguá","-24.0809","-46.6265","SOC QT LTDA","CNPJ","Extrativa mineral"
"221","08100",1,0,0,0,0,355610,"0810099","06",35,15520000,53,53,0,2062,1,1,3556107,"SP","São José do Rio Preto","Votuporanga","Valentim Gentil","-20.4217","-50.0889","SOC QT LTDA","CNPJ","Extrativa mineral"
"222","08100",1,0,0,0,0,351980,"0810099","05",35,15460000,28,28,0,2062,1,1,3519808,"SP","São José do Rio Preto","São José do Rio Preto","Icém","-20.3391","-49.1915","SOC QT LTDA","CNPJ","Extrativa mineral"
"223","08100",1,0,0,0,0,353960,"0810099","02",35,15260000,4,4,0,2062,1,1,3539608,"SP","São José do Rio Preto","São José do Rio Preto","Planalto","-21.0342","-49.933","SOC QT LTDA","CNPJ","Extrativa mineral"
"224","08100",1,0,0,0,0,351495,"0810099","05",35,15425000,41,41,0,2062,1,1,3514957,"SP","São José do Rio Preto","Catanduva","Embaúba","-20.9796","-48.8325","SOC QT LTDA","CNPJ","Extrativa mineral"
"225","08100",1,0,0,0,0,352570,"0810099","05",35,15200000,32,32,0,2062,1,1,3525706,"SP","São José do Rio Preto","São José do Rio Preto","José Bonifácio","-21.0551","-49.6892","SOC QT LTDA","CNPJ","Extrativa mineral"
"226","08100",1,0,0,0,0,355535,"0810099","02",35,15225000,1,1,0,2062,1,1,3555356,"SP","São José do Rio Preto","São José do Rio Preto","Ubarana","-21.165","-49.7198","SOC QT LTDA","CNPJ","Extrativa mineral"
"227","09904",1,0,0,0,1,351100,"0990403","04",35,16920000,11,11,0,2062,1,1,3511003,"SP","Araçatuba","Andradina","Castilho","-20.8689","-51.4884","SOC QT LTDA","CNPJ","Extrativa mineral"
"228","23991",1,0,0,0,0,355670,"2399199","05",35,13280001,40,40,0,2062,1,2,3556701,"SP","Campinas","Campinas","Vinhedo","-23.0302","-46.9833","SOC QT LTDA","CNPJ","Indústria de produtos minerais nao metálicos"
"229","08100",1,0,0,0,0,355620,"0810099","05",35,13275410,50,50,0,2062,1,1,3556206,"SP","Campinas","Campinas","Valinhos","-22.9698","-46.9974","SOC QT LTDA","CNPJ","Extrativa mineral"
"230","08100",1,0,0,0,0,350600,"0810099","05",35,17013205,33,33,0,2062,1,1,3506003,"SP","Bauru","Bauru","Bauru","-22.3246","-49.0871","SOC QT LTDA","CNPJ","Extrativa mineral"
"231","08100",1,0,0,0,0,353670,"0810099","02",35,17280000,5,5,0,2062,1,1,3536703,"SP","Bauru","Jaú","Pederneiras","-22.3511","-48.7781","SOC QT LTDA","CNPJ","Extrativa mineral"
"232","23991",1,0,0,0,0,355030,"2399199","06",35,4248000,88,88,0,2062,1,2,3550308,"SP","Metropolitana de São Paulo","São Paulo","São Paulo","-23.5329","-46.6395","SOC QT LTDA","CNPJ","Indústria de produtos minerais nao metálicos"
"233","08100",1,0,0,0,0,350840,"0810099","05",35,13315000,30,30,0,2062,1,1,3508405,"SP","Macro Metropolitana Paulista","Sorocaba","Cabreúva","-23.3053","-47.1362","SOC QT LTDA","CNPJ","Extrativa mineral"
"234","08100",1,0,1,0,1,350740,"0810099","01",35,14955000,0,0,0,2062,1,1,3507407,"SP","Araraquara","Araraquara","Borborema","-21.6214","-49.0741","SOC QT LTDA","CNPJ","Extrativa mineral"
"235","08100",1,0,1,0,1,354010,"0810099","02",35,16660000,4,4,0,2062,1,1,3540101,"SP","Bauru","Bauru","Pongaí","-21.7396","-49.3604","SOC QT LTDA","CNPJ","Extrativa mineral"
"236","08100",1,0,0,0,0,354270,"0810099","04",35,14430000,14,14,0,2062,1,1,3542701,"SP","Ribeirão Preto","Franca","Restinga","-20.6056","-47.4833","SOC QT LTDA","CNPJ","Extrativa mineral"
"237","23991",1,0,0,0,0,352310,"2399199","07",35,8580000,135,135,0,2062,1,2,3523107,"SP","Metropolitana de São Paulo","Mogi das Cruzes","Itaquaquecetuba","-23.4835","-46.3457","SOC QT LTDA","CNPJ","Indústria de produtos minerais nao metálicos"
"238","08100",1,0,0,0,0,351310,"0810099","02",35,14140000,4,4,0,2305,1,1,3513108,"SP","Ribeirão Preto","Ribeirão Preto","Cravinhos","-21.338","-47.7324",NA,"CNPJ","Extrativa mineral"
"239","08100",1,0,0,0,0,351240,"0810099","04",35,13490000,16,16,0,2062,1,1,3512407,"SP","Piracicaba","Limeira","Cordeirópolis","-22.4778","-47.4519","SOC QT LTDA","CNPJ","Extrativa mineral"
"240","23991",1,0,0,0,0,351380,"2399199","04",35,9910170,20,20,0,2062,1,2,3513801,"SP","Metropolitana de São Paulo","São Paulo","Diadema","-23.6813","-46.6205","SOC QT LTDA","CNPJ","Indústria de produtos minerais nao metálicos"
"241","23991",1,0,0,0,0,351380,"2399199","02",35,9941750,1,1,0,2062,1,2,3513801,"SP","Metropolitana de São Paulo","São Paulo","Diadema","-23.6813","-46.6205","SOC QT LTDA","CNPJ","Indústria de produtos minerais nao metálicos"
"242","08100",1,0,0,0,0,355030,"0810099","05",35,2995000,23,23,0,2062,1,1,3550308,"SP","Metropolitana de São Paulo","São Paulo","São Paulo","-23.5329","-46.6395","SOC QT LTDA","CNPJ","Extrativa mineral"
"243","08100",1,0,0,0,0,355030,"0810099","07",35,2995000,141,141,0,2062,1,1,3550308,"SP","Metropolitana de São Paulo","São Paulo","São Paulo","-23.5329","-46.6395","SOC QT LTDA","CNPJ","Extrativa mineral"
"244","23991",1,0,0,0,0,355635,"2399199","04",35,12935000,15,15,0,2062,1,2,3556354,"SP","Macro Metropolitana Paulista","Bragança Paulista","Vargem","-22.887","-46.4124","SOC QT LTDA","CNPJ","Indústria de produtos minerais nao metálicos"
"245","23991",1,0,0,0,0,355030,"2399199","02",35,2710080,4,4,0,2062,1,2,3550308,"SP","Metropolitana de São Paulo","São Paulo","São Paulo","-23.5329","-46.6395","SOC QT LTDA","CNPJ","Indústria de produtos minerais nao metálicos"
"246","23991",1,0,0,0,1,350600,"2399199","04",35,17064864,12,12,0,2062,1,2,3506003,"SP","Bauru","Bauru","Bauru","-22.3246","-49.0871","SOC QT LTDA","CNPJ","Indústria de produtos minerais nao metálicos"
"247","09904",1,0,0,0,1,353060,"0990403","05",35,8770490,26,26,0,2062,1,1,3530607,"SP","Metropolitana de São Paulo","Mogi das Cruzes","Mogi das Cruzes","-23.5208","-46.1854","SOC QT LTDA","CNPJ","Extrativa mineral"
"248","08100",1,0,0,0,0,350410,"0810099","05",35,12953162,37,37,0,2062,1,1,3504107,"SP","Macro Metropolitana Paulista","Bragança Paulista","Atibaia","-23.1171","-46.5563","SOC QT LTDA","CNPJ","Extrativa mineral"
"249","23991",1,0,0,0,1,354910,"2399199","02",35,13877757,1,1,0,2062,1,2,3549102,"SP","Campinas","São João da Boa Vista","São João da Boa Vista","-21.9707","-46.7944","SOC QT LTDA","CNPJ","Indústria de produtos minerais nao metálicos"
"250","23991",1,0,0,0,0,350900,"2399199","04",35,7700970,12,12,0,2062,1,2,3509007,"SP","Metropolitana de São Paulo","Franco da Rocha","Caieiras","-23.3607","-46.7397","SOC QT LTDA","CNPJ","Indústria de produtos minerais nao metálicos"
"251","23991",1,0,0,0,0,353060,"2399199","04",35,8810000,10,10,0,2062,1,2,3530607,"SP","Metropolitana de São Paulo","Mogi das Cruzes","Mogi das Cruzes","-23.5208","-46.1854","SOC QT LTDA","CNPJ","Indústria de produtos minerais nao metálicos"
"252","23991",1,0,0,0,0,355300,"2399199","03",35,18890000,10,10,0,2062,1,2,3553005,"SP","Assis","Ourinhos","Taguaí","-23.4452","-49.4024","SOC QT LTDA","CNPJ","Indústria de produtos minerais nao metálicos"
"253","23991",1,0,0,0,0,350750,"2399199","04",35,18609970,18,18,0,2135,1,2,3507506,"SP","Bauru","Botucatu","Botucatu","-22.8837","-48.4437","FRM MER IND","CNPJ","Indústria de produtos minerais nao metálicos"
"254","23991",1,0,0,0,1,355220,"2399199","03",35,18085490,7,7,0,2062,1,2,3552205,"SP","Macro Metropolitana Paulista","Sorocaba","Sorocaba","-23.4969","-47.4451","SOC QT LTDA","CNPJ","Indústria de produtos minerais nao metálicos"
"255","23991",1,0,0,0,1,353350,"2399199","03",35,14960000,7,7,0,2305,1,2,3533502,"SP","São José do Rio Preto","Novo Horizonte","Novo Horizonte","-21.4651","-49.2234",NA,"CNPJ","Indústria de produtos minerais nao metálicos"
"256","23991",1,0,0,0,0,355670,"2399199","04",35,13280001,13,13,0,2062,1,2,3556701,"SP","Campinas","Campinas","Vinhedo","-23.0302","-46.9833","SOC QT LTDA","CNPJ","Indústria de produtos minerais nao metálicos"
"257","23991",1,0,0,0,1,355030,"2399199","05",35,3223110,22,22,0,2305,1,2,3550308,"SP","Metropolitana de São Paulo","São Paulo","São Paulo","-23.5329","-46.6395",NA,"CNPJ","Indústria de produtos minerais nao metálicos"
"258","09904",1,0,0,0,1,352710,"0990403","04",35,16400033,11,11,0,2062,1,1,3527108,"SP","Bauru","Lins","Lins","-21.6718","-49.7526","SOC QT LTDA","CNPJ","Extrativa mineral"
"259","23991",1,0,0,0,1,355410,"2399199","03",35,12090700,6,6,0,2062,1,2,3554102,"SP","Vale do Paraíba Paulista","São José dos Campos","Taubaté","-23.0104","-45.5593","SOC QT LTDA","CNPJ","Indústria de produtos minerais nao metálicos"
"260","08100",1,0,0,0,0,351880,"0810099","08",35,7162900,445,445,0,2062,1,1,3518800,"SP","Metropolitana de São Paulo","Guarulhos","Guarulhos","-23.4538","-46.5333","SOC QT LTDA","CNPJ","Extrativa mineral"
"261","08100",1,0,0,0,0,354910,"0810099","05",35,13871000,42,42,0,2062,1,1,3549102,"SP","Campinas","São João da Boa Vista","São João da Boa Vista","-21.9707","-46.7944","SOC QT LTDA","CNPJ","Extrativa mineral"
"262","23991",1,0,0,0,1,353130,"2399199","05",35,15910000,22,22,0,2135,1,2,3531308,"SP","Ribeirão Preto","Jaboticabal","Monte Alto","-21.2655","-48.4971","FRM MER IND","CNPJ","Indústria de produtos minerais nao metálicos"
"263","23991",1,0,0,0,1,355030,"2399199","05",35,8230730,20,20,0,2135,1,2,3550308,"SP","Metropolitana de São Paulo","São Paulo","São Paulo","-23.5329","-46.6395","FRM MER IND","CNPJ","Indústria de produtos minerais nao metálicos"
"264","08100",1,0,0,0,0,355440,"0810099","05",35,14745000,22,22,0,2062,1,1,3554409,"SP","Ribeirão Preto","Jaboticabal","Terra Roxa","-20.787","-48.3314","SOC QT LTDA","CNPJ","Extrativa mineral"
"265","23991",1,0,0,0,1,354340,"2399199","02",35,14031800,3,3,0,2062,1,2,3543402,"SP","Ribeirão Preto","Ribeirão Preto","Ribeirão Preto","-21.1699","-47.8099","SOC QT LTDA","CNPJ","Indústria de produtos minerais nao metálicos"
"266","08100",1,0,0,0,0,355150,"0810099","05",35,14150000,21,21,0,2062,1,1,3551504,"SP","Ribeirão Preto","Ribeirão Preto","Serrana","-21.2043","-47.5952","SOC QT LTDA","CNPJ","Extrativa mineral"
"267","23991",1,0,0,0,1,355450,"2399199","04",35,18530000,14,14,0,2062,1,2,3554508,"SP","Piracicaba","Piracicaba","Tietê","-23.1101","-47.7164","SOC QT LTDA","CNPJ","Indústria de produtos minerais nao metálicos"
"268","23991",1,0,0,0,0,350950,"2399199","06",35,13068609,61,61,0,2062,1,2,3509502,"SP","Campinas","Campinas","Campinas","-22.9053","-47.0659","SOC QT LTDA","CNPJ","Indústria de produtos minerais nao metálicos"
"269","23991",1,0,0,0,1,351380,"2399199","03",35,9980030,5,5,0,2062,1,2,3513801,"SP","Metropolitana de São Paulo","São Paulo","Diadema","-23.6813","-46.6205","SOC QT LTDA","CNPJ","Indústria de produtos minerais nao metálicos"
"270","08100",1,0,0,0,0,354540,"0810099","03",35,19920000,3,3,0,2062,1,1,3545407,"SP","Assis","Ourinhos","Salto Grande","-22.8894","-49.9831","SOC QT LTDA","CNPJ","Extrativa mineral"
"271","23991",1,0,0,0,0,353282,"2399199","02",35,18435000,3,3,0,2062,1,2,3532827,"SP","Itapetininga","Itapeva","Nova Campina","-24.1224","-48.9022","SOC QT LTDA","CNPJ","Indústria de produtos minerais nao metálicos"
"272","23991",1,0,0,0,0,353282,"2399199","05",35,18435000,42,42,0,2062,1,2,3532827,"SP","Itapetininga","Itapeva","Nova Campina","-24.1224","-48.9022","SOC QT LTDA","CNPJ","Indústria de produtos minerais nao metálicos"
"273","23991",1,0,0,0,0,350760,"2399199","05",35,12900005,21,21,0,2062,1,2,3507605,"SP","Macro Metropolitana Paulista","Bragança Paulista","Bragança Paulista","-22.9527","-46.5419","SOC QT LTDA","CNPJ","Indústria de produtos minerais nao metálicos"
"274","08100",1,0,0,0,1,354620,"0810099","04",35,13625000,10,10,0,2062,1,1,3546207,"SP","Piracicaba","Limeira","Santa Cruz da Conceição","-22.1405","-47.4512","SOC QT LTDA","CNPJ","Extrativa mineral"
"275","09904",1,0,0,0,0,350600,"0990402","04",35,17015311,10,10,0,2062,1,1,3506003,"SP","Bauru","Bauru","Bauru","-22.3246","-49.0871","SOC QT LTDA","CNPJ","Extrativa mineral"
"276","09904",1,0,0,0,1,354370,"0990403","02",35,14830000,1,1,0,2135,1,1,3543709,"SP","Araraquara","Araraquara","Rincão","-21.5894","-48.0728","FRM MER IND","CNPJ","Extrativa mineral"
"277","23991",1,0,0,0,0,353340,"2399199","04",35,13380001,12,12,0,2062,1,2,3533403,"SP","Campinas","Campinas","Nova Odessa","-22.7832","-47.2941","SOC QT LTDA","CNPJ","Indústria de produtos minerais nao metálicos"
"278","23991",1,0,1,0,0,352270,"2399199","04",35,14900000,13,13,0,2062,1,2,3522703,"SP","Araraquara","Araraquara","Itápolis","-21.5942","-48.8149","SOC QT LTDA","CNPJ","Indústria de produtos minerais nao metálicos"
"279","08100",1,0,0,0,0,354680,"0810099","06",35,7500000,89,89,0,2062,1,1,3546801,"SP","Metropolitana de São Paulo","Guarulhos","Santa Isabel","-23.3172","-46.2237","SOC QT LTDA","CNPJ","Extrativa mineral"
"280","23991",1,0,0,0,0,352310,"2399199","05",35,8599650,41,41,0,2062,1,2,3523107,"SP","Metropolitana de São Paulo","Mogi das Cruzes","Itaquaquecetuba","-23.4835","-46.3457","SOC QT LTDA","CNPJ","Indústria de produtos minerais nao metálicos"
"281","23991",1,0,0,0,1,354880,"2399199","02",35,9580300,2,2,0,2305,1,2,3548807,"SP","Metropolitana de São Paulo","São Paulo","São Caetano do Sul","-23.6229","-46.5548",NA,"CNPJ","Indústria de produtos minerais nao metálicos"
"282","23991",1,0,1,0,1,355030,"2399199","02",35,2723050,3,3,0,2062,1,2,3550308,"SP","Metropolitana de São Paulo","São Paulo","São Paulo","-23.5329","-46.6395","SOC QT LTDA","CNPJ","Indústria de produtos minerais nao metálicos"
"283","23991",1,0,0,0,0,351880,"2399199","04",35,7224150,12,12,0,2054,1,2,3518800,"SP","Metropolitana de São Paulo","Guarulhos","Guarulhos","-23.4538","-46.5333","SA FECH","CNPJ","Indústria de produtos minerais nao metálicos"
"284","23991",1,0,0,0,0,354980,"2399199","03",35,15092601,7,7,0,2054,1,2,3549805,"SP","São José do Rio Preto","São José do Rio Preto","São José do Rio Preto","-20.8113","-49.3758","SA FECH","CNPJ","Indústria de produtos minerais nao metálicos"
"285","23991",1,0,0,0,0,353650,"2399199","02",35,13147030,3,3,0,2054,1,2,3536505,"SP","Campinas","Campinas","Paulínia","-22.7542","-47.1488","SA FECH","CNPJ","Indústria de produtos minerais nao metálicos"
"286","08100",1,0,0,0,0,350760,"0810099","06",35,12914970,75,75,0,2054,1,1,3507605,"SP","Macro Metropolitana Paulista","Bragança Paulista","Bragança Paulista","-22.9527","-46.5419","SA FECH","CNPJ","Extrativa mineral"
"287","23991",1,0,0,0,1,353130,"2399199","05",35,15910000,31,31,0,2305,1,2,3531308,"SP","Ribeirão Preto","Jaboticabal","Monte Alto","-21.2655","-48.4971",NA,"CNPJ","Indústria de produtos minerais nao metálicos"
"288","23991",1,0,1,0,1,352390,"2399199","02",35,13312500,2,2,0,2062,1,2,3523909,"SP","Macro Metropolitana Paulista","Sorocaba","Itu","-23.2544","-47.2927","SOC QT LTDA","CNPJ","Indústria de produtos minerais nao metálicos"
"289","08100",1,0,0,0,0,350400,"0810099","05",35,19807155,24,24,0,2062,1,1,3504008,"SP","Assis","Assis","Assis","-22.66","-50.4183","SOC QT LTDA","CNPJ","Extrativa mineral"
"290","23991",1,0,0,0,0,353710,"2399199","07",35,13920000,116,116,0,2062,1,2,3537107,"SP","Campinas","Campinas","Pedreira","-22.7413","-46.8948","SOC QT LTDA","CNPJ","Indústria de produtos minerais nao metálicos"
"291","08100",1,0,0,0,0,354990,"0810099","04",35,12210000,14,14,0,2062,1,1,3549904,"SP","Vale do Paraíba Paulista","São José dos Campos","São José dos Campos","-23.1896","-45.8841","SOC QT LTDA","CNPJ","Extrativa mineral"
"292","08100",1,0,0,0,0,350860,"0810099","04",35,12630000,19,19,0,2062,1,1,3508603,"SP","Vale do Paraíba Paulista","Guaratinguetá","Cachoeira Paulista","-22.6665","-45.0154","SOC QT LTDA","CNPJ","Extrativa mineral"
"293","23991",1,0,0,0,0,354390,"2399199","05",35,13500970,45,45,0,2062,1,2,3543907,"SP","Piracicaba","Rio Claro","Rio Claro","-22.3984","-47.5546","SOC QT LTDA","CNPJ","Indústria de produtos minerais nao metálicos"
"294","08100",1,0,0,0,0,351980,"0810099","07",35,15460000,107,107,0,2062,1,1,3519808,"SP","São José do Rio Preto","São José do Rio Preto","Icém","-20.3391","-49.1915","SOC QT LTDA","CNPJ","Extrativa mineral"
"295","09904",1,0,0,0,1,353060,"0990403","05",35,8765340,21,21,0,2062,1,1,3530607,"SP","Metropolitana de São Paulo","Mogi das Cruzes","Mogi das Cruzes","-23.5208","-46.1854","SOC QT LTDA","CNPJ","Extrativa mineral"
"296","23991",1,0,0,0,0,352500,"2399199","09",35,6612000,769,769,0,2062,1,2,3525003,"SP","Metropolitana de São Paulo","Osasco","Jandira","-23.5275","-46.9023","SOC QT LTDA","CNPJ","Indústria de produtos minerais nao metálicos"
"297","23991",1,0,0,0,0,354980,"2399199","02",35,15077000,6,6,0,2062,1,2,3549805,"SP","São José do Rio Preto","São José do Rio Preto","São José do Rio Preto","-20.8113","-49.3758","SOC QT LTDA","CNPJ","Indústria de produtos minerais nao metálicos"
"298","23991",1,0,0,0,1,352010,"2399199","02",35,14540000,3,3,0,2062,1,2,3520103,"SP","Ribeirão Preto","Ituverava","Igarapava","-20.0407","-47.7466","SOC QT LTDA","CNPJ","Indústria de produtos minerais nao metálicos"
"299","23991",1,0,0,0,0,351880,"2399199","05",35,7175120,30,30,0,2062,1,2,3518800,"SP","Metropolitana de São Paulo","Guarulhos","Guarulhos","-23.4538","-46.5333","SOC QT LTDA","CNPJ","Indústria de produtos minerais nao metálicos"
"300","23991",1,0,1,0,0,355030,"2399199","04",35,5094000,11,11,0,2062,1,2,3550308,"SP","Metropolitana de São Paulo","São Paulo","São Paulo","-23.5329","-46.6395","SOC QT LTDA","CNPJ","Indústria de produtos minerais nao metálicos"
"301","23991",1,0,0,0,0,352720,"2399199","06",35,12600970,52,52,0,2062,1,2,3527207,"SP","Vale do Paraíba Paulista","Guaratinguetá","Lorena","-22.7334","-45.1197","SOC QT LTDA","CNPJ","Indústria de produtos minerais nao metálicos"
"302","23991",1,0,0,0,0,350900,"2399199","07",35,7700001,193,193,0,2062,1,2,3509007,"SP","Metropolitana de São Paulo","Franco da Rocha","Caieiras","-23.3607","-46.7397","SOC QT LTDA","CNPJ","Indústria de produtos minerais nao metálicos"
"303","23991",1,0,0,0,0,351880,"2399199","07",35,7111150,184,184,0,2062,1,2,3518800,"SP","Metropolitana de São Paulo","Guarulhos","Guarulhos","-23.4538","-46.5333","SOC QT LTDA","CNPJ","Indústria de produtos minerais nao metálicos"
"304","23991",1,0,0,0,0,355670,"2399199","07",35,13284400,128,128,0,2062,1,2,3556701,"SP","Campinas","Campinas","Vinhedo","-23.0302","-46.9833","SOC QT LTDA","CNPJ","Indústria de produtos minerais nao metálicos"
"305","23991",1,0,0,0,0,354340,"2399199","03",35,14072070,6,6,0,2062,1,2,3543402,"SP","Ribeirão Preto","Ribeirão Preto","Ribeirão Preto","-21.1699","-47.8099","SOC QT LTDA","CNPJ","Indústria de produtos minerais nao metálicos"
"306","23991",1,0,0,0,0,350600,"2399199","03",35,17039520,5,5,0,2062,1,2,3506003,"SP","Bauru","Bauru","Bauru","-22.3246","-49.0871","SOC QT LTDA","CNPJ","Indústria de produtos minerais nao metálicos"
"307","23991",1,0,0,0,0,355030,"2399199","07",35,4747000,133,133,0,2062,1,2,3550308,"SP","Metropolitana de São Paulo","São Paulo","São Paulo","-23.5329","-46.6395","SOC QT LTDA","CNPJ","Indústria de produtos minerais nao metálicos"
"308","08100",1,0,0,0,0,352850,"0810099","06",35,7600000,55,55,0,2054,1,1,3528502,"SP","Metropolitana de São Paulo","Franco da Rocha","Mairiporã","-23.3171","-46.5897","SA FECH","CNPJ","Extrativa mineral"
"309","08100",1,0,0,0,0,355030,"0810099","05",35,5428000,49,49,0,2054,1,1,3550308,"SP","Metropolitana de São Paulo","São Paulo","São Paulo","-23.5329","-46.6395","SA FECH","CNPJ","Extrativa mineral"
"310","08100",1,0,0,0,0,351500,"0810099","07",35,6845070,186,186,0,2054,1,1,3515004,"SP","Metropolitana de São Paulo","Itapecerica da Serra","Embu das Artes","-23.6437","-46.8579","SA FECH","CNPJ","Extrativa mineral"
"311","08100",1,0,0,0,0,353060,"0810099","06",35,8771001,92,92,0,2054,1,1,3530607,"SP","Metropolitana de São Paulo","Mogi das Cruzes","Mogi das Cruzes","-23.5208","-46.1854","SA FECH","CNPJ","Extrativa mineral"
"312","08100",1,0,0,0,0,355030,"0810099","06",35,5220000,53,53,0,2054,1,1,3550308,"SP","Metropolitana de São Paulo","São Paulo","São Paulo","-23.5329","-46.6395","SA FECH","CNPJ","Extrativa mineral"
"313","08100",1,0,0,0,0,352400,"0810099","05",35,13295000,29,29,0,2054,1,1,3524006,"SP","Macro Metropolitana Paulista","Jundiaí","Itupeva","-23.1526","-47.0593","SA FECH","CNPJ","Extrativa mineral"
"314","08100",1,0,0,0,0,353560,"0810099","04",35,12260000,10,10,0,2054,1,1,3535606,"SP","Vale do Paraíba Paulista","Paraibuna/Paraitinga","Paraibuna","-23.3872","-45.6639","SA FECH","CNPJ","Extrativa mineral"
"315","23991",1,0,0,0,0,353060,"2399199","07",35,8735270,114,114,0,2062,1,2,3530607,"SP","Metropolitana de São Paulo","Mogi das Cruzes","Mogi das Cruzes","-23.5208","-46.1854","SOC QT LTDA","CNPJ","Indústria de produtos minerais nao metálicos"
"316","23991",1,0,0,0,0,352690,"2399199","05",35,13480021,33,33,0,2062,1,2,3526902,"SP","Piracicaba","Limeira","Limeira","-22.566","-47.397","SOC QT LTDA","CNPJ","Indústria de produtos minerais nao metálicos"
"317","23991",1,0,0,0,0,353650,"2399199","02",35,13148192,1,1,0,2062,1,2,3536505,"SP","Campinas","Campinas","Paulínia","-22.7542","-47.1488","SOC QT LTDA","CNPJ","Indústria de produtos minerais nao metálicos"
"318","23991",1,0,0,0,0,351370,"2399199","06",35,13690000,105,105,0,2062,1,2,3513702,"SP","Araraquara","São Carlos","Descalvado","-21.9002","-47.6181","SOC QT LTDA","CNPJ","Indústria de produtos minerais nao metálicos"
"319","23991",1,0,0,0,1,355670,"2399199","04",35,13280000,17,17,0,2062,1,2,3556701,"SP","Campinas","Campinas","Vinhedo","-23.0302","-46.9833","SOC QT LTDA","CNPJ","Indústria de produtos minerais nao metálicos"
"320","23991",1,0,0,0,1,354580,"2399199","02",35,13454001,1,1,0,2135,1,2,3545803,"SP","Campinas","Campinas","Santa Bárbara d'Oeste","-22.7553","-47.4143","FRM MER IND","CNPJ","Indústria de produtos minerais nao metálicos"
"321","08100",1,0,0,0,0,355410,"0810099","02",35,12090700,3,3,0,2062,1,1,3554102,"SP","Vale do Paraíba Paulista","São José dos Campos","Taubaté","-23.0104","-45.5593","SOC QT LTDA","CNPJ","Extrativa mineral"
"322","23991",1,0,0,0,1,351510,"2399199","02",35,6900000,1,1,0,2062,1,2,3515103,"SP","Metropolitana de São Paulo","Itapecerica da Serra","Embu-Guaçu","-23.8297","-46.8136","SOC QT LTDA","CNPJ","Indústria de produtos minerais nao metálicos"
"323","23991",1,0,0,0,0,355030,"2399199","02",35,2544000,1,1,0,2305,1,2,3550308,"SP","Metropolitana de São Paulo","São Paulo","São Paulo","-23.5329","-46.6395",NA,"CNPJ","Indústria de produtos minerais nao metálicos"
"324","08100",1,0,0,0,0,355030,"0810099","06",35,8490500,92,92,0,2054,1,1,3550308,"SP","Metropolitana de São Paulo","São Paulo","São Paulo","-23.5329","-46.6395","SA FECH","CNPJ","Extrativa mineral"
"325","23991",1,0,0,0,0,351660,"2399199","02",35,17450000,3,3,0,2062,1,2,3516606,"SP","Marília","Marília","Gália","-22.2918","-49.5504","SOC QT LTDA","CNPJ","Indústria de produtos minerais nao metálicos"
"326","09904",1,0,0,0,0,352360,"0990403","03",35,13530000,8,8,0,2062,1,1,3523602,"SP","Piracicaba","Rio Claro","Itirapina","-22.2562","-47.8166","SOC QT LTDA","CNPJ","Extrativa mineral"
"327","23991",1,0,0,0,0,355650,"2399199","06",35,13223025,59,59,0,2062,1,2,3556503,"SP","Macro Metropolitana Paulista","Jundiaí","Várzea Paulista","-23.2136","-46.8234","SOC QT LTDA","CNPJ","Indústria de produtos minerais nao metálicos"
"328","08100",1,0,0,0,0,354580,"0810099","05",35,13450269,24,24,0,2062,1,1,3545803,"SP","Campinas","Campinas","Santa Bárbara d'Oeste","-22.7553","-47.4143","SOC QT LTDA","CNPJ","Extrativa mineral"
"329","09904",1,0,0,0,1,350030,"0990403","04",35,13860000,10,10,0,2135,1,1,3500303,"SP","Campinas","Pirassununga","Aguaí","-22.0572","-46.9735","FRM MER IND","CNPJ","Extrativa mineral"
"330","08100",1,0,0,0,0,355410,"0810099","05",35,12040000,20,20,0,2305,1,1,3554102,"SP","Vale do Paraíba Paulista","São José dos Campos","Taubaté","-23.0104","-45.5593",NA,"CNPJ","Extrativa mineral"
"331","08100",1,0,0,0,0,354850,"0810099","05",35,11096000,38,38,0,2062,1,1,3548500,"SP","Metropolitana de São Paulo","Santos","Santos","-23.9535","-46.335","SOC QT LTDA","CNPJ","Extrativa mineral"
"332","23991",1,0,0,0,1,355670,"2399199","02",35,13280000,1,1,0,2062,1,2,3556701,"SP","Campinas","Campinas","Vinhedo","-23.0302","-46.9833","SOC QT LTDA","CNPJ","Indústria de produtos minerais nao metálicos"
"333","23991",1,0,0,0,1,355650,"2399199","03",35,13224780,5,5,0,2062,1,2,3556503,"SP","Macro Metropolitana Paulista","Jundiaí","Várzea Paulista","-23.2136","-46.8234","SOC QT LTDA","CNPJ","Indústria de produtos minerais nao metálicos"
"334","08100",1,0,0,0,1,354390,"0810099","04",35,13504505,12,12,0,2305,1,1,3543907,"SP","Piracicaba","Rio Claro","Rio Claro","-22.3984","-47.5546",NA,"CNPJ","Extrativa mineral"
"335","09904",1,0,0,0,0,354390,"0990403","03",35,13500970,5,5,0,2062,1,1,3543907,"SP","Piracicaba","Rio Claro","Rio Claro","-22.3984","-47.5546","SOC QT LTDA","CNPJ","Extrativa mineral"
"336","23991",1,0,0,0,1,352240,"2399199","04",35,18400970,15,15,0,2062,1,2,3522406,"SP","Itapetininga","Itapeva","Itapeva","-23.9788","-48.8764","SOC QT LTDA","CNPJ","Indústria de produtos minerais nao metálicos"
"337","23991",1,0,1,0,1,354390,"2399199","04",35,13500270,14,14,0,2062,1,2,3543907,"SP","Piracicaba","Rio Claro","Rio Claro","-22.3984","-47.5546","SOC QT LTDA","CNPJ","Indústria de produtos minerais nao metálicos"
"338","23991",1,0,0,0,1,351300,"2399199","02",35,6725070,1,1,0,2305,1,2,3513009,"SP","Metropolitana de São Paulo","Itapecerica da Serra","Cotia","-23.6022","-46.919",NA,"CNPJ","Indústria de produtos minerais nao metálicos"
"339","23991",1,0,0,0,0,350330,"2399199","03",35,13600970,10,10,0,2062,1,2,3503307,"SP","Piracicaba","Limeira","Araras","-22.3572","-47.3842","SOC QT LTDA","CNPJ","Indústria de produtos minerais nao metálicos"
"340","08100",1,0,0,0,0,355030,"0810099","05",35,1038902,27,27,0,2054,1,1,3550308,"SP","Metropolitana de São Paulo","São Paulo","São Paulo","-23.5329","-46.6395","SA FECH","CNPJ","Extrativa mineral"
"341","08100",1,0,0,0,0,350920,"0810099","05",35,7750020,32,32,0,2054,1,1,3509205,"SP","Metropolitana de São Paulo","Osasco","Cajamar","-23.355","-46.8781","SA FECH","CNPJ","Extrativa mineral"
"342","08100",1,0,0,0,0,355030,"0810099","03",35,2801000,9,9,0,2054,1,1,3550308,"SP","Metropolitana de São Paulo","São Paulo","São Paulo","-23.5329","-46.6395","SA FECH","CNPJ","Extrativa mineral"
"343","23991",1,0,0,0,0,355220,"2399199","07",35,18075042,152,152,0,2062,1,2,3552205,"SP","Macro Metropolitana Paulista","Sorocaba","Sorocaba","-23.4969","-47.4451","SOC QT LTDA","CNPJ","Indústria de produtos minerais nao metálicos"
"344","23991",1,0,0,0,1,353210,"2399199","02",35,16950000,3,3,0,2062,1,2,3532108,"SP","Araçatuba","Andradina","Murutinga do Sul","-20.9908","-51.2774","SOC QT LTDA","CNPJ","Indústria de produtos minerais nao metálicos"
"345","23991",1,0,0,0,0,355110,"2399199","05",35,18225000,29,29,0,2062,1,2,3551108,"SP","Macro Metropolitana Paulista","Sorocaba","Sarapuí","-23.6397","-47.8249","SOC QT LTDA","CNPJ","Indústria de produtos minerais nao metálicos"
"346","08100",1,0,0,0,1,354890,"0810099","03",35,13565800,7,7,0,2135,1,1,3548906,"SP","Araraquara","São Carlos","São Carlos","-22.0174","-47.886","FRM MER IND","CNPJ","Extrativa mineral"
"347","08100",1,0,0,0,1,350600,"0810099","03",35,17010000,5,5,0,2062,1,1,3506003,"SP","Bauru","Bauru","Bauru","-22.3246","-49.0871","SOC QT LTDA","CNPJ","Extrativa mineral"
"348","23991",1,0,0,0,0,354390,"2399199","03",35,13505660,12,12,0,2062,1,2,3543907,"SP","Piracicaba","Rio Claro","Rio Claro","-22.3984","-47.5546","SOC QT LTDA","CNPJ","Indústria de produtos minerais nao metálicos"
"349","08100",1,0,0,0,0,354850,"0810099","06",35,11096000,79,79,0,2062,1,1,3548500,"SP","Metropolitana de São Paulo","Santos","Santos","-23.9535","-46.335","SOC QT LTDA","CNPJ","Extrativa mineral"
"350","23991",1,0,0,0,0,351830,"2399199","06",35,8900000,76,76,0,2062,1,2,3518305,"SP","Metropolitana de São Paulo","Mogi das Cruzes","Guararema","-23.4112","-46.0369","SOC QT LTDA","CNPJ","Indústria de produtos minerais nao metálicos"
"351","23991",1,0,0,0,1,350950,"2399199","02",35,13054711,1,1,0,2305,1,2,3509502,"SP","Campinas","Campinas","Campinas","-22.9053","-47.0659",NA,"CNPJ","Indústria de produtos minerais nao metálicos"
"352","09904",1,0,1,0,1,352390,"0990403","02",35,13311153,1,1,0,2062,1,1,3523909,"SP","Macro Metropolitana Paulista","Sorocaba","Itu","-23.2544","-47.2927","SOC QT LTDA","CNPJ","Extrativa mineral"
"353","23991",1,0,0,0,0,353870,"2399199","03",35,13412212,10,10,0,2062,1,2,3538709,"SP","Piracicaba","Piracicaba","Piracicaba","-22.7338","-47.6476","SOC QT LTDA","CNPJ","Indústria de produtos minerais nao metálicos"
"354","23991",1,0,0,0,0,352850,"2399199","04",35,7600972,17,17,0,2062,1,2,3528502,"SP","Metropolitana de São Paulo","Franco da Rocha","Mairiporã","-23.3171","-46.5897","SOC QT LTDA","CNPJ","Indústria de produtos minerais nao metálicos"
"355","23991",1,0,0,0,0,351880,"2399199","05",35,7221000,30,30,0,2062,1,2,3518800,"SP","Metropolitana de São Paulo","Guarulhos","Guarulhos","-23.4538","-46.5333","SOC QT LTDA","CNPJ","Indústria de produtos minerais nao metálicos"
"356","08100",1,0,0,0,0,354390,"0810099","04",35,13504505,13,13,0,2062,1,1,3543907,"SP","Piracicaba","Rio Claro","Rio Claro","-22.3984","-47.5546","SOC QT LTDA","CNPJ","Extrativa mineral"
"357","23991",1,0,0,0,0,355250,"2399199","05",35,8613370,30,30,0,2062,1,2,3552502,"SP","Metropolitana de São Paulo","Mogi das Cruzes","Suzano","-23.5448","-46.3112","SOC QT LTDA","CNPJ","Indústria de produtos minerais nao metálicos"
"358","08100",1,0,0,0,0,353650,"0810099","06",35,13140423,74,74,0,2062,1,1,3536505,"SP","Campinas","Campinas","Paulínia","-22.7542","-47.1488","SOC QT LTDA","CNPJ","Extrativa mineral"
"359","08100",1,0,0,0,0,355070,"0810099","02",35,11600200,1,1,0,2062,1,1,3550704,"SP","Vale do Paraíba Paulista","Caraguatatuba","São Sebastião","-23.7951","-45.4143","SOC QT LTDA","CNPJ","Extrativa mineral"
"360","23991",1,0,0,0,0,352720,"2399199","05",35,12600970,42,42,0,2062,1,2,3527207,"SP","Vale do Paraíba Paulista","Guaratinguetá","Lorena","-22.7334","-45.1197","SOC QT LTDA","CNPJ","Indústria de produtos minerais nao metálicos"
"361","23991",1,0,0,0,0,355030,"2399199","03",35,5275010,9,9,0,2305,1,2,3550308,"SP","Metropolitana de São Paulo","São Paulo","São Paulo","-23.5329","-46.6395",NA,"CNPJ","Indústria de produtos minerais nao metálicos"
"362","23991",1,0,0,0,0,355030,"2399199","02",35,2514000,4,4,0,2305,1,2,3550308,"SP","Metropolitana de São Paulo","São Paulo","São Paulo","-23.5329","-46.6395",NA,"CNPJ","Indústria de produtos minerais nao metálicos"
"363","08100",1,0,0,0,0,355370,"0810099","02",35,15900000,3,3,0,2305,1,1,3553708,"SP","Ribeirão Preto","Jaboticabal","Taquaritinga","-21.4049","-48.5103",NA,"CNPJ","Extrativa mineral"
"364","23991",1,0,0,0,0,355670,"2399199","05",35,13280001,26,26,0,2062,1,2,3556701,"SP","Campinas","Campinas","Vinhedo","-23.0302","-46.9833","SOC QT LTDA","CNPJ","Indústria de produtos minerais nao metálicos"
"365","08100",1,0,0,0,0,351760,"0810099","02",35,18310000,1,1,0,2062,1,1,3517604,"SP","Itapetininga","Capão Bonito","Guapiara","-24.1892","-48.5295","SOC QT LTDA","CNPJ","Extrativa mineral"
"366","08100",1,0,0,0,0,353710,"0810099","03",35,13920000,5,5,0,2062,1,1,3537107,"SP","Campinas","Campinas","Pedreira","-22.7413","-46.8948","SOC QT LTDA","CNPJ","Extrativa mineral"
"367","23991",1,0,0,0,1,351620,"2399199","03",35,14405135,5,5,0,2062,1,2,3516200,"SP","Ribeirão Preto","Franca","Franca","-20.5352","-47.4039","SOC QT LTDA","CNPJ","Indústria de produtos minerais nao metálicos"
"368","23991",1,0,0,0,0,355030,"2399199","03",35,2723110,8,8,0,2062,1,2,3550308,"SP","Metropolitana de São Paulo","São Paulo","São Paulo","-23.5329","-46.6395","SOC QT LTDA","CNPJ","Indústria de produtos minerais nao metálicos"
"369","23991",1,0,0,0,0,351880,"2399199","06",35,7224150,91,91,0,2062,1,2,3518800,"SP","Metropolitana de São Paulo","Guarulhos","Guarulhos","-23.4538","-46.5333","SOC QT LTDA","CNPJ","Indústria de produtos minerais nao metálicos"
"370","23991",1,0,0,0,0,354520,"2399199","06",35,13323010,58,58,0,2062,1,2,3545209,"SP","Macro Metropolitana Paulista","Sorocaba","Salto","-23.1996","-47.2931","SOC QT LTDA","CNPJ","Indústria de produtos minerais nao metálicos"
"371","23991",1,0,0,0,0,355670,"2399199","04",35,13283182,20,20,0,2062,1,2,3556701,"SP","Campinas","Campinas","Vinhedo","-23.0302","-46.9833","SOC QT LTDA","CNPJ","Indústria de produtos minerais nao metálicos"
"372","08100",1,0,0,0,0,355030,"0810099","04",35,2306001,19,19,0,2062,1,1,3550308,"SP","Metropolitana de São Paulo","São Paulo","São Paulo","-23.5329","-46.6395","SOC QT LTDA","CNPJ","Extrativa mineral"
"373","08100",1,0,0,0,1,350760,"0810099","02",35,12929380,2,2,0,2135,1,1,3507605,"SP","Macro Metropolitana Paulista","Bragança Paulista","Bragança Paulista","-22.9527","-46.5419","FRM MER IND","CNPJ","Extrativa mineral"
"374","08100",1,0,0,0,0,352340,"0810099","06",35,13252810,51,51,0,2062,1,1,3523404,"SP","Macro Metropolitana Paulista","Bragança Paulista","Itatiba","-23.0035","-46.8464","SOC QT LTDA","CNPJ","Extrativa mineral"
"375","23991",1,0,0,0,0,355040,"2399199","05",35,13520000,38,38,0,2062,1,2,3550407,"SP","Piracicaba","Piracicaba","São Pedro","-22.5483","-47.9096","SOC QT LTDA","CNPJ","Indústria de produtos minerais nao metálicos"
"376","08100",1,0,0,0,0,355030,"0810099","03",35,1035903,6,6,0,2062,1,1,3550308,"SP","Metropolitana de São Paulo","São Paulo","São Paulo","-23.5329","-46.6395","SOC QT LTDA","CNPJ","Extrativa mineral"
"377","23991",1,0,0,0,0,351240,"2399199","03",35,13490000,7,7,0,2062,1,2,3512407,"SP","Piracicaba","Limeira","Cordeirópolis","-22.4778","-47.4519","SOC QT LTDA","CNPJ","Indústria de produtos minerais nao metálicos"
"378","08100",1,0,0,0,0,352590,"0810099","06",35,13212390,61,61,0,2062,1,1,3525904,"SP","Macro Metropolitana Paulista","Jundiaí","Jundiaí","-23.1852","-46.8974","SOC QT LTDA","CNPJ","Extrativa mineral"
"379","23991",1,0,0,0,1,354580,"2399199","02",35,13456136,1,1,0,2062,1,2,3545803,"SP","Campinas","Campinas","Santa Bárbara d'Oeste","-22.7553","-47.4143","SOC QT LTDA","CNPJ","Indústria de produtos minerais nao metálicos"
"380","23991",1,0,0,0,1,353140,"2399199","02",35,15150000,1,1,0,2062,1,2,3531407,"SP","São José do Rio Preto","Nhandeara","Monte Aprazível","-20.768","-49.7184","SOC QT LTDA","CNPJ","Indústria de produtos minerais nao metálicos"
"381","23991",1,0,0,0,0,352440,"2399199","03",35,12325000,11,11,0,2305,1,2,3524402,"SP","Vale do Paraíba Paulista","São José dos Campos","Jacareí","-23.2983","-45.9658",NA,"CNPJ","Indústria de produtos minerais nao metálicos"
"382","23991",1,0,0,0,0,355640,"2399199","05",35,13880000,22,22,0,2062,1,2,3556404,"SP","Campinas","São João da Boa Vista","Vargem Grande do Sul","-21.8322","-46.8913","SOC QT LTDA","CNPJ","Indústria de produtos minerais nao metálicos"
"383","23991",1,0,0,0,0,351380,"2399199","02",35,9991000,1,1,0,2062,1,2,3513801,"SP","Metropolitana de São Paulo","São Paulo","Diadema","-23.6813","-46.6205","SOC QT LTDA","CNPJ","Indústria de produtos minerais nao metálicos"
"384","23991",1,0,0,0,0,352590,"2399199","05",35,13218660,25,25,0,2062,1,2,3525904,"SP","Macro Metropolitana Paulista","Jundiaí","Jundiaí","-23.1852","-46.8974","SOC QT LTDA","CNPJ","Indústria de produtos minerais nao metálicos"
"385","08100",1,0,0,0,0,350860,"0810099","03",35,12630000,9,9,0,2062,1,1,3508603,"SP","Vale do Paraíba Paulista","Guaratinguetá","Cachoeira Paulista","-22.6665","-45.0154","SOC QT LTDA","CNPJ","Extrativa mineral"
"386","23991",1,0,0,0,0,353282,"2399199","04",35,18435000,19,19,0,2305,1,2,3532827,"SP","Itapetininga","Itapeva","Nova Campina","-24.1224","-48.9022",NA,"CNPJ","Indústria de produtos minerais nao metálicos"
"387","08100",1,0,1,0,0,350250,"0810099","05",35,12570000,40,40,0,2062,1,1,3502507,"SP","Vale do Paraíba Paulista","Guaratinguetá","Aparecida","-22.8495","-45.2325","SOC QT LTDA","CNPJ","Extrativa mineral"
"388","23991",1,0,0,0,0,354390,"2399199","03",35,13503151,14,14,0,2305,1,2,3543907,"SP","Piracicaba","Rio Claro","Rio Claro","-22.3984","-47.5546",NA,"CNPJ","Indústria de produtos minerais nao metálicos"
"389","23991",1,0,0,0,1,352340,"2399199","03",35,13257587,9,9,0,2305,1,2,3523404,"SP","Macro Metropolitana Paulista","Bragança Paulista","Itatiba","-23.0035","-46.8464",NA,"CNPJ","Indústria de produtos minerais nao metálicos"
"390","23991",1,0,0,0,1,353680,"2399199","02",35,12990000,1,1,0,2135,1,2,3536802,"SP","Campinas","Amparo","Pedra Bela","-22.7902","-46.4455","FRM MER IND","CNPJ","Indústria de produtos minerais nao metálicos"
"391","23991",1,0,0,0,0,350760,"2399199","03",35,12900005,7,7,0,2305,1,2,3507605,"SP","Macro Metropolitana Paulista","Bragança Paulista","Bragança Paulista","-22.9527","-46.5419",NA,"CNPJ","Indústria de produtos minerais nao metálicos"
"392","23991",1,0,0,0,0,352050,"2399199","05",35,13346620,20,20,0,2062,1,2,3520509,"SP","Campinas","Campinas","Indaiatuba","-23.0816","-47.2101","SOC QT LTDA","CNPJ","Indústria de produtos minerais nao metálicos"
"393","23991",1,0,0,0,1,351830,"2399199","06",35,8900000,88,88,0,2062,1,2,3518305,"SP","Metropolitana de São Paulo","Mogi das Cruzes","Guararema","-23.4112","-46.0369","SOC QT LTDA","CNPJ","Indústria de produtos minerais nao metálicos"
"394","08100",1,0,0,0,0,355220,"0810099","06",35,18020400,54,54,0,2062,1,1,3552205,"SP","Macro Metropolitana Paulista","Sorocaba","Sorocaba","-23.4969","-47.4451","SOC QT LTDA","CNPJ","Extrativa mineral"
"395","23991",1,0,0,0,0,352400,"2399199","05",35,13295000,24,24,0,2062,1,2,3524006,"SP","Macro Metropolitana Paulista","Jundiaí","Itupeva","-23.1526","-47.0593","SOC QT LTDA","CNPJ","Indústria de produtos minerais nao metálicos"
"396","23991",1,0,0,0,1,351240,"2399199","02",35,13490970,3,3,0,2062,1,2,3512407,"SP","Piracicaba","Limeira","Cordeirópolis","-22.4778","-47.4519","SOC QT LTDA","CNPJ","Indústria de produtos minerais nao metálicos"
"397","23991",1,0,0,0,0,355030,"2399199","03",35,3479070,5,5,0,2062,1,2,3550308,"SP","Metropolitana de São Paulo","São Paulo","São Paulo","-23.5329","-46.6395","SOC QT LTDA","CNPJ","Indústria de produtos minerais nao metálicos"
"398","23991",1,0,0,0,0,350570,"2399199","05",35,6423150,23,23,0,2062,1,2,3505708,"SP","Metropolitana de São Paulo","Osasco","Barueri","-23.5057","-46.879","SOC QT LTDA","CNPJ","Indústria de produtos minerais nao metálicos"
"399","08100",1,0,0,0,1,354970,"0810099","04",35,13731450,18,18,0,2062,1,1,3549706,"SP","Campinas","São João da Boa Vista","São José do Rio Pardo","-21.5953","-46.8873","SOC QT LTDA","CNPJ","Extrativa mineral"
"400","08100",1,0,1,0,0,350570,"0810099","05",35,6423080,54,54,0,2062,1,1,3505708,"SP","Metropolitana de São Paulo","Osasco","Barueri","-23.5057","-46.879","SOC QT LTDA","CNPJ","Extrativa mineral"
"401","23991",1,0,0,0,1,354390,"2399199","04",35,13500270,10,10,0,2062,1,2,3543907,"SP","Piracicaba","Rio Claro","Rio Claro","-22.3984","-47.5546","SOC QT LTDA","CNPJ","Indústria de produtos minerais nao metálicos"
"402","23991",1,0,0,0,0,351710,"2399199","01",35,16270000,0,0,0,2062,1,2,3517109,"SP","Araçatuba","Birigui","Glicério","-21.3812","-50.2123","SOC QT LTDA","CNPJ","Indústria de produtos minerais nao metálicos"
"403","08100",1,0,0,0,0,350570,"0810099","05",35,6407000,44,44,0,2062,1,1,3505708,"SP","Metropolitana de São Paulo","Osasco","Barueri","-23.5057","-46.879","SOC QT LTDA","CNPJ","Extrativa mineral"
"404","23991",1,0,0,0,0,355030,"2399199","03",35,8042280,9,9,0,2062,1,2,3550308,"SP","Metropolitana de São Paulo","São Paulo","São Paulo","-23.5329","-46.6395","SOC QT LTDA","CNPJ","Indústria de produtos minerais nao metálicos"
"405","08100",1,0,0,0,0,354730,"0810099","07",35,6516300,116,116,0,2062,1,1,3547304,"SP","Metropolitana de São Paulo","Osasco","Santana de Parnaíba","-23.4439","-46.9178","SOC QT LTDA","CNPJ","Extrativa mineral"
"406","23991",1,0,0,0,0,353282,"2399199","02",35,18435000,1,1,0,2062,1,2,3532827,"SP","Itapetininga","Itapeva","Nova Campina","-24.1224","-48.9022","SOC QT LTDA","CNPJ","Indústria de produtos minerais nao metálicos"
"407","23991",1,0,0,0,0,353282,"2399199","05",35,18435000,47,47,0,2062,1,2,3532827,"SP","Itapetininga","Itapeva","Nova Campina","-24.1224","-48.9022","SOC QT LTDA","CNPJ","Indústria de produtos minerais nao metálicos"
"408","23991",1,0,0,0,0,355670,"2399199","04",35,13280001,18,18,0,2062,1,2,3556701,"SP","Campinas","Campinas","Vinhedo","-23.0302","-46.9833","SOC QT LTDA","CNPJ","Indústria de produtos minerais nao metálicos"
"409","08100",1,0,0,0,0,351880,"0810099","06",35,7162000,66,66,0,2062,1,1,3518800,"SP","Metropolitana de São Paulo","Guarulhos","Guarulhos","-23.4538","-46.5333","SOC QT LTDA","CNPJ","Extrativa mineral"
"410","08100",1,0,0,0,0,353870,"0810099","03",35,13400970,6,6,0,2062,1,1,3538709,"SP","Piracicaba","Piracicaba","Piracicaba","-22.7338","-47.6476","SOC QT LTDA","CNPJ","Extrativa mineral"
"411","23991",1,0,0,0,0,354910,"2399199","09",35,13872900,557,557,0,2062,1,2,3549102,"SP","Campinas","São João da Boa Vista","São João da Boa Vista","-21.9707","-46.7944","SOC QT LTDA","CNPJ","Indústria de produtos minerais nao metálicos"
"412","23991",1,0,0,0,1,350390,"2399199","02",35,7434325,4,4,0,2062,1,2,3503901,"SP","Metropolitana de São Paulo","Guarulhos","Arujá","-23.3965","-46.32","SOC QT LTDA","CNPJ","Indústria de produtos minerais nao metálicos"
"413","23991",1,0,0,0,0,355670,"2399199","04",35,13280001,15,15,0,2062,1,2,3556701,"SP","Campinas","Campinas","Vinhedo","-23.0302","-46.9833","SOC QT LTDA","CNPJ","Indústria de produtos minerais nao metálicos"
"414","23991",1,0,0,0,0,355670,"2399199","07",35,13280001,135,135,0,2062,1,2,3556701,"SP","Campinas","Campinas","Vinhedo","-23.0302","-46.9833","SOC QT LTDA","CNPJ","Indústria de produtos minerais nao metálicos"
"415","23991",1,0,0,0,1,355250,"2399199","05",35,8650010,33,33,0,2305,1,2,3552502,"SP","Metropolitana de São Paulo","Mogi das Cruzes","Suzano","-23.5448","-46.3112",NA,"CNPJ","Indústria de produtos minerais nao metálicos"
"416","23991",1,0,0,0,1,350160,"2399199","02",35,13478722,1,1,0,2062,1,2,3501608,"SP","Campinas","Campinas","Americana","-22.7374","-47.3331","SOC QT LTDA","CNPJ","Indústria de produtos minerais nao metálicos"
"417","23991",1,0,0,0,0,355110,"2399199","05",35,18225000,21,21,0,2062,1,2,3551108,"SP","Macro Metropolitana Paulista","Sorocaba","Sarapuí","-23.6397","-47.8249","SOC QT LTDA","CNPJ","Indústria de produtos minerais nao metálicos"
"418","23991",1,0,0,0,1,355535,"2399199","01",35,15225000,0,0,0,2062,1,2,3555356,"SP","São José do Rio Preto","São José do Rio Preto","Ubarana","-21.165","-49.7198","SOC QT LTDA","CNPJ","Indústria de produtos minerais nao metálicos"
"419","23991",1,0,0,0,0,354520,"2399199","07",35,13323100,120,120,0,2062,1,2,3545209,"SP","Macro Metropolitana Paulista","Sorocaba","Salto","-23.1996","-47.2931","SOC QT LTDA","CNPJ","Indústria de produtos minerais nao metálicos"
"420","23991",1,0,0,0,1,355620,"2399199","02",35,13275410,2,2,0,2062,1,2,3556206,"SP","Campinas","Campinas","Valinhos","-22.9698","-46.9974","SOC QT LTDA","CNPJ","Indústria de produtos minerais nao metálicos"
"421","23991",1,0,0,0,0,355030,"2399199","02",35,8285000,3,3,0,2062,1,2,3550308,"SP","Metropolitana de São Paulo","São Paulo","São Paulo","-23.5329","-46.6395","SOC QT LTDA","CNPJ","Indústria de produtos minerais nao metálicos"
"422","23991",1,0,0,0,0,350400,"2399199","02",35,19805000,3,3,0,2062,1,2,3504008,"SP","Assis","Assis","Assis","-22.66","-50.4183","SOC QT LTDA","CNPJ","Indústria de produtos minerais nao metálicos"
"423","23991",1,0,0,0,1,354780,"2399199","02",35,9120410,4,4,0,2062,1,2,3547809,"SP","Metropolitana de São Paulo","São Paulo","Santo André","-23.6737","-46.5432","SOC QT LTDA","CNPJ","Indústria de produtos minerais nao metálicos"
"424","08100",1,0,0,0,1,352170,"0810099","02",35,18440000,1,1,0,2135,1,1,3521705,"SP","Itapetininga","Itapeva","Itaberá","-23.8638","-49.14","FRM MER IND","CNPJ","Extrativa mineral"
"425","09904",1,0,0,0,0,350760,"0990403","02",35,12902040,2,2,0,2062,1,1,3507605,"SP","Macro Metropolitana Paulista","Bragança Paulista","Bragança Paulista","-22.9527","-46.5419","SOC QT LTDA","CNPJ","Extrativa mineral"
"426","23991",1,0,0,0,1,355030,"2399199","04",35,3186010,17,17,0,2305,1,2,3550308,"SP","Metropolitana de São Paulo","São Paulo","São Paulo","-23.5329","-46.6395",NA,"CNPJ","Indústria de produtos minerais nao metálicos"
"427","23991",1,0,0,0,1,350410,"2399199","02",35,12951160,1,1,0,2062,1,2,3504107,"SP","Macro Metropolitana Paulista","Bragança Paulista","Atibaia","-23.1171","-46.5563","SOC QT LTDA","CNPJ","Indústria de produtos minerais nao metálicos"
"428","08100",1,0,0,0,1,350460,"0810099","02",35,15115000,1,1,0,2135,1,1,3504602,"SP","São José do Rio Preto","São José do Rio Preto","Bady Bassitt","-20.9197","-49.4385","FRM MER IND","CNPJ","Extrativa mineral"
"429","23991",1,0,0,0,1,353870,"2399199","02",35,13424540,1,1,0,2305,1,2,3538709,"SP","Piracicaba","Piracicaba","Piracicaba","-22.7338","-47.6476",NA,"CNPJ","Indústria de produtos minerais nao metálicos"
"430","23991",1,0,0,0,0,350700,"2399199","02",35,18550000,2,2,0,2305,1,2,3507001,"SP","Itapetininga","Tatuí","Boituva","-23.2855","-47.6786",NA,"CNPJ","Indústria de produtos minerais nao metálicos"
"431","08100",1,0,0,0,0,353870,"0810099","05",35,13411516,28,28,0,2062,1,1,3538709,"SP","Piracicaba","Piracicaba","Piracicaba","-22.7338","-47.6476","SOC QT LTDA","CNPJ","Extrativa mineral"
"432","08100",1,0,0,0,0,350950,"0810099","05",35,13064190,35,35,0,2062,1,1,3509502,"SP","Campinas","Campinas","Campinas","-22.9053","-47.0659","SOC QT LTDA","CNPJ","Extrativa mineral"
"433","08100",1,0,0,0,0,353220,"0810099","04",35,19220000,17,17,0,2062,1,1,3532207,"SP","Presidente Prudente","Presidente Prudente","Narandiba","-22.4057","-51.5274","SOC QT LTDA","CNPJ","Extrativa mineral"
"434","23991",1,0,0,0,1,350760,"2399199","04",35,12929590,13,13,0,2062,1,2,3507605,"SP","Macro Metropolitana Paulista","Bragança Paulista","Bragança Paulista","-22.9527","-46.5419","SOC QT LTDA","CNPJ","Indústria de produtos minerais nao metálicos"
"435","23991",1,0,0,0,0,351370,"2399199","05",35,13690000,54,54,0,2062,1,2,3513702,"SP","Araraquara","São Carlos","Descalvado","-21.9002","-47.6181","SOC QT LTDA","CNPJ","Indústria de produtos minerais nao metálicos"
"436","08100",1,0,0,0,0,352510,"0810099","05",35,14680000,39,39,0,2062,1,1,3525102,"SP","Ribeirão Preto","Ribeirão Preto","Jardinópolis","-21.0176","-47.7606","SOC QT LTDA","CNPJ","Extrativa mineral"
"437","08100",1,0,0,0,0,350320,"0810099","05",35,14801970,32,32,0,2062,1,1,3503208,"SP","Araraquara","Araraquara","Araraquara","-21.7845","-48.178","SOC QT LTDA","CNPJ","Extrativa mineral"
"438","08100",1,0,0,0,0,352430,"0810099","05",35,14888000,29,29,0,2062,1,1,3524303,"SP","Ribeirão Preto","Jaboticabal","Jaboticabal","-21.252","-48.3252","SOC QT LTDA","CNPJ","Extrativa mineral"
"439","08100",1,0,0,0,0,352400,"0810099","03",35,13295000,10,10,0,2062,1,1,3524006,"SP","Macro Metropolitana Paulista","Jundiaí","Itupeva","-23.1526","-47.0593","SOC QT LTDA","CNPJ","Extrativa mineral"
"440","23991",1,0,0,0,0,351570,"2399199","04",35,8540215,14,14,0,2062,1,2,3515707,"SP","Metropolitana de São Paulo","Mogi das Cruzes","Ferraz de Vasconcelos","-23.5411","-46.371","SOC QT LTDA","CNPJ","Indústria de produtos minerais nao metálicos"
"441","23991",1,0,0,0,1,354370,"2399199","03",35,14830000,8,8,0,2062,1,2,3543709,"SP","Araraquara","Araraquara","Rincão","-21.5894","-48.0728","SOC QT LTDA","CNPJ","Indústria de produtos minerais nao metálicos"
"442","23991",1,0,0,0,1,355030,"2399199","04",35,4213021,11,11,0,2062,1,2,3550308,"SP","Metropolitana de São Paulo","São Paulo","São Paulo","-23.5329","-46.6395","SOC QT LTDA","CNPJ","Indústria de produtos minerais nao metálicos"
"443","23991",1,0,0,0,1,352730,"2399199","05",35,13290000,25,25,0,2062,1,2,3527306,"SP","Macro Metropolitana Paulista","Jundiaí","Louveira","-23.0856","-46.9484","SOC QT LTDA","CNPJ","Indústria de produtos minerais nao metálicos"
"444","23991",1,0,0,0,0,352730,"2399199","02",35,13290000,2,2,0,2062,1,2,3527306,"SP","Macro Metropolitana Paulista","Jundiaí","Louveira","-23.0856","-46.9484","SOC QT LTDA","CNPJ","Indústria de produtos minerais nao metálicos"
"445","23991",1,0,0,0,0,352940,"2399199","02",35,9370800,4,4,0,2062,1,2,3529401,"SP","Metropolitana de São Paulo","São Paulo","Mauá","-23.6677","-46.4613","SOC QT LTDA","CNPJ","Indústria de produtos minerais nao metálicos"
"446","23991",1,0,0,0,0,354680,"2399199","03",35,7500970,8,8,0,2062,1,2,3546801,"SP","Metropolitana de São Paulo","Guarulhos","Santa Isabel","-23.3172","-46.2237","SOC QT LTDA","CNPJ","Indústria de produtos minerais nao metálicos"
"447","08100",1,0,0,0,0,355535,"0810099","05",35,15225000,25,25,0,2062,1,1,3555356,"SP","São José do Rio Preto","São José do Rio Preto","Ubarana","-21.165","-49.7198","SOC QT LTDA","CNPJ","Extrativa mineral"
"448","23991",1,0,0,0,1,350160,"2399199","02",35,13474570,2,2,0,2305,1,2,3501608,"SP","Campinas","Campinas","Americana","-22.7374","-47.3331",NA,"CNPJ","Indústria de produtos minerais nao metálicos"
"449","23991",1,0,0,0,0,354870,"2399199","07",35,9852070,123,123,0,2062,1,2,3548708,"SP","Metropolitana de São Paulo","São Paulo","São Bernardo do Campo","-23.6914","-46.5646","SOC QT LTDA","CNPJ","Indústria de produtos minerais nao metálicos"
"450","23991",1,0,0,0,1,355620,"2399199","02",35,13273184,3,3,0,2062,1,2,3556206,"SP","Campinas","Campinas","Valinhos","-22.9698","-46.9974","SOC QT LTDA","CNPJ","Indústria de produtos minerais nao metálicos"
"451","08100",1,0,0,0,0,352460,"0810099","05",35,11940000,25,25,0,2054,1,1,3524600,"SP","Litoral Sul Paulista","Registro","Jacupiranga","-24.6963","-48.0064","SA FECH","CNPJ","Extrativa mineral"
"452","23991",1,0,1,0,1,353440,"2399199","04",35,6280090,10,10,0,2062,1,2,3534401,"SP","Metropolitana de São Paulo","Osasco","Osasco","-23.5324","-46.7916","SOC QT LTDA","CNPJ","Indústria de produtos minerais nao metálicos"
"453","08100",1,0,0,0,1,352720,"0810099","04",35,12600350,12,12,0,2062,1,1,3527207,"SP","Vale do Paraíba Paulista","Guaratinguetá","Lorena","-22.7334","-45.1197","SOC QT LTDA","CNPJ","Extrativa mineral"
"454","08100",1,0,1,0,0,352490,"0810099","05",35,12270000,48,48,0,2062,1,1,3524907,"SP","Vale do Paraíba Paulista","Paraibuna/Paraitinga","Jambeiro","-23.2522","-45.6942","SOC QT LTDA","CNPJ","Extrativa mineral"
"455","23991",1,0,0,0,0,354390,"2399199","02",35,13504365,4,4,0,2062,1,2,3543907,"SP","Piracicaba","Rio Claro","Rio Claro","-22.3984","-47.5546","SOC QT LTDA","CNPJ","Indústria de produtos minerais nao metálicos"
"456","09904",0,0,0,1,0,350220,"0990403","01",35,18240000,0,0,0,2062,1,1,3502200,"SP","Itapetininga","Itapetininga","Angatuba","-23.4917","-48.4139","SOC QT LTDA","CNPJ","Extrativa mineral"
"457","23991",9,0,0,1,0,354100,"2399199","01",35,11715000,0,0,0,2062,1,2,3541000,"SP","Metropolitana de São Paulo","Santos","Praia Grande","-24.0084","-46.4121","SOC QT LTDA","CNPJ","Indústria de produtos minerais nao metálicos"
"458","08100",0,0,0,1,1,350775,"0810099","01",35,16265000,0,0,0,2062,1,1,3507753,"SP","Araçatuba","Birigui","Brejo Alegre","-21.1651","-50.1861","SOC QT LTDA","CNPJ","Extrativa mineral"
"459","08100",9,0,0,1,0,353560,"0810099","01",35,12260000,0,0,0,2062,1,1,3535606,"SP","Vale do Paraíba Paulista","Paraibuna/Paraitinga","Paraibuna","-23.3872","-45.6639","SOC QT LTDA","CNPJ","Extrativa mineral"
"460","09904",0,0,0,1,1,353440,"0990401","01",35,6090023,0,0,0,2062,1,1,3534401,"SP","Metropolitana de São Paulo","Osasco","Osasco","-23.5324","-46.7916","SOC QT LTDA","CNPJ","Extrativa mineral"
"461","08100",0,0,0,1,1,354070,"0810099","01",35,99999999,0,0,0,2062,1,1,3540705,"SP","Campinas","Pirassununga","Porto Ferreira","-21.8498","-47.487","SOC QT LTDA","CNPJ","Extrativa mineral"
"462","23991",1,0,0,1,0,351830,"2399199","01",35,8900000,0,0,0,2062,1,2,3518305,"SP","Metropolitana de São Paulo","Mogi das Cruzes","Guararema","-23.4112","-46.0369","SOC QT LTDA","CNPJ","Indústria de produtos minerais nao metálicos"
"463","09904",1,0,0,1,1,355030,"0990403","01",35,4024030,0,0,0,2062,1,1,3550308,"SP","Metropolitana de São Paulo","São Paulo","São Paulo","-23.5329","-46.6395","SOC QT LTDA","CNPJ","Extrativa mineral"
"464","08100",0,0,0,1,0,351480,"0810099","01",35,11960000,0,0,0,2135,1,1,3514809,"SP","Litoral Sul Paulista","Registro","Eldorado","-24.5281","-48.1141","FRM MER IND","CNPJ","Extrativa mineral"
